stop_id,stop_code,stop_name,stop_desc,stop_lat,stop_lon,location_type,parent_station,wheelchair_boarding
10880,50AC,Gare - SOMAIN,,50.355733,3.278615,1,,0
21742,50AC1,Gare - SOMAIN,,50.355819,3.278356,0,10880,0
10879,50AB,Résidence Ferrari,,50.355773,3.272225,1,,0
21740,50AB1,Résidence Ferrari,,50.355827,3.272211,0,10879,0
10878,50AA,Edmond Simon,,50.355861,3.265195,1,,0
21738,50AA1,Edmond Simon,,50.355897,3.265153,0,10878,0
10700,31AA,Brasserie - BRUILLE LEZ MARCHIENNES,,50.358445,3.244096,1,,0
21616,31AA2,Brasserie - BRUILLE LEZ MARCHIENNES,,50.358232,3.243884,0,10700,0
10811,31AB,Mairie - BRUILLE LEZ MARCHIENNES,,50.356389,3.240410,1,,0
21609,31AB1,Mairie - BRUILLE LEZ MARCHIENNES,,50.356405,3.240654,0,10811,0
10720,25AB,Place - ECAILLON,,50.349816,3.215991,1,,0
21611,25AB2,Place - ECAILLON,,50.349852,3.216026,0,10720,0
11054,25AE,Cimetière - ECAILLON,,50.349723,3.209402,1,,0
22121,25AE2,Cimetière - ECAILLON,,50.349764,3.209388,0,11054,0
10972,17AI,Epinettes - MASNY,,50.347550,3.205146,1,,0
21904,17AI2,Epinettes - MASNY,,50.347393,3.204945,0,10972,0
10973,17AJ,Perrault,,50.345152,3.203153,1,,0
21906,17AJ2,Perrault,,50.345179,3.203167,0,10973,0
10699,17AG,Collège Desnos,,50.341456,3.201800,1,,0
21381,17AG1,Collège Desnos,,50.341456,3.201800,0,10699,0
10334,17AA,Commerces - MASNY,,50.336965,3.201844,1,,0
20665,17AA2,Commerces - MASNY,,50.336920,3.201943,0,10334,0
10688,22AE,St Robert,,50.321258,3.207645,1,,0
21360,22AE2,St Robert,,50.321210,3.207576,0,10688,0
10687,22AD,St Roch,,50.315485,3.207066,1,,0
21358,22AD2,St Roch,,50.315418,3.207031,0,10687,0
10686,22AC,Rousseau,,50.308912,3.209099,1,,0
21356,22AC2,Rousseau,,50.308770,3.209086,0,10686,0
10685,22AB,Eglise - MONCHECOURT,,50.304271,3.207737,1,,0
21354,22AB2,Eglise - MONCHECOURT,,50.304075,3.208248,0,10685,0
10684,22AA,Mairie - MONCHECOURT,,50.303463,3.212336,1,,0
21351,22AA1,Mairie - MONCHECOURT,,50.303463,3.212336,0,10684,0
21353,22AB1,Eglise - MONCHECOURT,,50.304292,3.208107,0,10685,0
10980,22AH,Voltaire - MONCHECOURT,,50.299532,3.204567,1,,0
21959,22AH2,Voltaire - MONCHECOURT,,50.299476,3.204416,0,10980,0
11017,54AC,Bel Horizon,,50.291823,3.198182,1,,0
22034,54AC1,Bel Horizon,,50.291837,3.198147,0,11017,0
10899,54AB,Monument - FRESSAIN,,50.287331,3.194361,1,,0
21781,54AB1,Monument - FRESSAIN,,50.287594,3.194352,0,10899,0
11018,55AC,Alouettes,,50.270938,3.208227,1,,0
22036,55AC1,Alouettes,,50.270990,3.208110,0,11018,0
10900,55AA,Place de Gaulle - FECHAIN,,50.265918,3.210460,1,,0
21782,55AA1,Place de Gaulle - FECHAIN,,50.265862,3.210420,0,10900,0
11019,55AD,Hosselet,,50.263740,3.205237,1,,0
22038,55AD1,Hosselet,,50.263822,3.204074,0,11019,0
11024,70AA,Centre - AUBIGNY AU BAC,,50.262638,3.165132,1,,0
22046,70AA1,Centre - AUBIGNY AU BAC,,50.262693,3.165265,0,11024,0
11026,70AB,Coteau,,50.265523,3.162412,1,,0
22048,70AB1,Coteau,,50.265914,3.162283,0,11026,0
11028,70AC1,Place - AUBIGNY AU BAC,,50.263359,3.160182,1,,0
22050,70AC1,Place - AUBIGNY AU BAC,,50.263322,3.159963,0,11028,0
11067,75AB,Ecole - AUBENCHEUL AU BAC,,50.257834,3.158462,1,,0
22148,75AB1,Ecole - AUBENCHEUL AU BAC,,50.258080,3.158616,0,11067,0
11066,75AA,Belvédère,,50.258498,3.155047,1,,0
22146,75AA1,Belvédère,,50.258605,3.154962,0,11066,0
11013,86AB,Mairie - BRUNEMONT,,50.271617,3.141522,1,,0
22026,86AB1,Mairie - BRUNEMONT,,50.271616,3.141650,0,11013,0
11012,86AA,Passage à Niveau - BRUNEMONT,,50.278325,3.146006,1,,0
22024,86AA1,Passage à Niveau - BRUNEMONT,,50.278316,3.146055,0,11012,0
10895,53AA,Longue Borne - BUGNICOURT,,50.287546,3.152729,1,,0
21773,53AA1,Longue Borne - BUGNICOURT,,50.287179,3.152733,0,10895,0
11022,53AE,La Tuilerie,,50.290512,3.151515,1,,0
22045,53AE1,La Tuilerie,,50.290402,3.151506,0,11022,0
22081,53AA3,Longue Borne - BUGNICOURT,,50.288115,3.152684,0,10895,0
10890,52AC,Ecole F. Noël,,50.283432,3.121999,1,,0
22113,52AC3,Ecole F. Noël,,50.283316,3.122163,0,10890,0
10891,52AD,Cité Guyot,,50.282967,3.117770,1,,0
21766,52AD1,Cité Guyot,,50.282981,3.117896,0,10891,0
10892,52AE,Vieux Cimetière,,50.282444,3.111305,1,,0
21768,52AE1,Vieux Cimetière,,50.282640,3.111910,0,10892,0
10893,52AF,Centre - ARLEUX,,50.281702,3.105326,1,,0
21770,52AF1,Centre - ARLEUX,,50.281743,3.105222,0,10893,0
10894,52AG,Collège Val de la Sensée,,50.283800,3.099826,1,,0
22065,52AG4,Collège Val de la Sensée,,50.283687,3.100084,0,10894,0
10998,82AC,Mont Gratien,,50.295538,3.073376,1,,0
21999,82AC2,Mont Gratien,,50.295764,3.073108,0,10998,0
10997,82AB,Mont,,50.297871,3.070204,1,,0
21997,82AB2,Mont,,50.297947,3.070265,0,10997,0
11035,82AD1,Mont de la Vigne,,50.300789,3.076970,1,,0
22058,82AD2,Mont de la Vigne,,50.300699,3.076956,0,11035,0
11007,85AD,Le Molinel,,50.308504,3.099043,1,,0
22017,85AD2,Le Molinel,,50.308648,3.098826,0,11007,0
11006,85AC,La Forge,,50.315582,3.095495,1,,0
22015,85AC2,La Forge,,50.315617,3.095530,0,11006,0
11005,85AB,Eglise - GOEULZIN,,50.317516,3.093138,1,,0
22013,85AB2,Eglise - GOEULZIN,,50.317630,3.093080,0,11005,0
11055,81AE,Petite Sensée,,50.324512,3.079309,1,,0
22123,81AE2,Petite Sensée,,50.324436,3.079615,0,11055,0
11056,81AD,Rue de Goeulzin,,50.327293,3.075247,1,,0
22125,81AD2,Rue de Goeulzin,,50.327465,3.075160,0,11056,0
10993,81AA,Bol d'air,,50.330103,3.076791,1,,0
21989,81AA2,Bol d'air,,50.330059,3.076833,0,10993,0
10570,02AX,C. Cial Pte de Mr Gayant,,50.340705,3.098425,1,,0
21135,02AX1,C. Cial Pte de Mr Gayant,,50.340705,3.098425,0,10570,0
10653,13AM,Parc du Luc,,50.340886,3.101486,1,,0
21293,13AM1,Parc du Luc,,50.340910,3.101431,0,10653,0
10366,13AC,Centre Hospitalier,,50.338681,3.101466,1,,0
20727,13AC1,Centre Hospitalier,,50.338351,3.101284,0,10366,0
10365,12AA,St Pol,,50.346650,3.091354,1,,0
20726,12AA2,St Pol,,50.346256,3.091034,0,10365,0
10364,01AP,Le Raquet,,50.350636,3.087030,1,,0
20724,01AP2,Le Raquet,,50.350508,3.087247,0,10364,0
10363,01AO,Eglise du Râquet,,50.353110,3.085097,1,,0
20722,01AO2,Eglise du Râquet,,50.353075,3.085216,0,10363,0
10362,01AN,Pont de Cambrai,,50.358411,3.080566,1,,0
20720,01AN2,Pont de Cambrai,,50.358130,3.080945,0,10362,0
10361,01AM,Maison des Géants,,50.362015,3.078415,1,,0
20718,01AM2,Maison des Géants,,50.362003,3.078544,0,10361,0
10360,01AL,Porte de Paris,,50.363804,3.078889,1,,0
20716,01AL2,Porte de Paris,,50.363835,3.078988,0,10360,0
10013,01DO,Beffroi,,50.367477,3.081651,1,,0
20025,01DO2,Beffroi,,50.367462,3.081678,0,10013,0
10660,01AB,Place de Gaulle - DOUAI,,50.367615,3.084984,1,,0
21093,01AB6,Place de Gaulle - DOUAI,,50.367584,3.085134,0,10660,0
10352,01AD,Place Carnot,,50.371778,3.086037,1,,0
21436,01AD4,Place Carnot,,50.372016,3.086065,0,10352,0
10898,54AA,Fontaine,,50.286822,3.187579,1,,0
21780,54AA2,Fontaine,,50.286879,3.187701,0,10898,0
10897,53AC,Camping,,50.292697,3.161066,1,,0
21778,53AC2,Camping,,50.292726,3.161191,0,10897,0
11014,53AD,Fontaine de Bugnicourt,,50.292150,3.157489,1,,0
22029,53AD2,Fontaine de Bugnicourt,,50.292165,3.157307,0,11014,0
10896,53AB,Les Ecoles,,50.290174,3.154321,1,,0
21776,53AB2,Les Ecoles,,50.290247,3.154358,0,10896,0
21294,13AM2,Parc du Luc,,50.340879,3.101613,0,10653,0
21988,81AA1,Bol d'air,,50.330148,3.076749,0,10993,0
22126,81AD1,Rue de Goeulzin,,50.327122,3.075335,0,11056,0
22124,81AE1,Petite Sensée,,50.324588,3.079004,0,11055,0
22012,85AB1,Eglise - GOEULZIN,,50.317402,3.093196,0,11005,0
22014,85AC1,La Forge,,50.315546,3.095460,0,11006,0
22016,85AD1,Le Molinel,,50.308360,3.099260,0,11007,0
22057,82AD1,Mont de la Vigne,,50.300879,3.076985,0,11035,0
21996,82AB1,Mont,,50.297794,3.070143,0,10997,0
21998,82AC1,Mont Gratien,,50.295312,3.073644,0,10998,0
22064,52AG3,Collège Val de la Sensée,,50.283913,3.099569,0,10894,0
21771,52AF2,Centre - ARLEUX,,50.281661,3.105429,0,10893,0
21769,52AE2,Vieux Cimetière,,50.282249,3.110699,0,10892,0
21767,52AD2,Cité Guyot,,50.282952,3.117643,0,10891,0
22114,52AC4,Ecole F. Noël,,50.283163,3.122278,0,10890,0
21775,53AB1,Les Ecoles,,50.290100,3.154284,0,10896,0
22028,53AD1,Fontaine de Bugnicourt,,50.292135,3.157671,0,11014,0
21777,53AC1,Camping,,50.292668,3.160941,0,10897,0
21779,54AA1,Fontaine,,50.286764,3.187457,0,10898,0
22035,54AC2,Bel Horizon,,50.291810,3.198217,0,11017,0
21958,22AH1,Voltaire - MONCHECOURT,,50.299587,3.204718,0,10980,0
21355,22AC1,Rousseau,,50.309053,3.209111,0,10686,0
21357,22AD1,St Roch,,50.315552,3.207101,0,10687,0
21359,22AE1,St Robert,,50.321306,3.207715,0,10688,0
20664,17AA1,Commerces - MASNY,,50.337010,3.201746,0,10334,0
21907,17AJ1,Perrault,,50.345124,3.203140,0,10973,0
21905,17AI1,Epinettes - MASNY,,50.347707,3.205348,0,10972,0
22122,25AE1,Cimetière - ECAILLON,,50.349683,3.209416,0,11054,0
21419,25AB1,Place - ECAILLON,,50.349780,3.215955,0,10720,0
21610,31AB2,Mairie - BRUILLE LEZ MARCHIENNES,,50.356373,3.240165,0,10811,0
21383,31AA1,Brasserie - BRUILLE LEZ MARCHIENNES,,50.358293,3.244151,0,10700,0
21737,50AA2,Edmond Simon,,50.355825,3.265237,0,10878,0
21739,50AB2,Résidence Ferrari,,50.355720,3.272239,0,10879,0
21741,50AC2,Gare - SOMAIN,,50.355646,3.278874,0,10880,0
10719,17AH,Abreuvoir,,50.350870,3.203051,1,,0
21612,17AH2,Abreuvoir,,50.350870,3.203051,0,10719,0
10698,17AF,Mairie - MASNY,,50.347481,3.200714,1,,0
21379,17AF1,Mairie - MASNY,,50.348081,3.200907,0,10698,0
21380,17AF2,Mairie - MASNY,,50.346880,3.200521,0,10698,0
10697,17AE,Abreuvoir,,50.350266,3.202087,1,,0
21378,17AE2,Abreuvoir,,50.350459,3.202207,0,10697,0
10735,06AR,ZI Cuincy,,50.371779,3.042386,1,,0
21475,06AR2,ZI Cuincy,,50.371675,3.041703,0,10735,0
10740,06AU,Chapelle,,50.372344,3.050296,1,,0
21485,06AU2,Chapelle,,50.372331,3.050282,0,10740,0
10460,01BM,Guynemer,,50.372018,3.056227,1,,0
20915,01BM1,Guynemer,,50.372014,3.055953,0,10460,0
10461,01BN,Lilas,,50.372245,3.062702,1,,0
20917,01BN1,Lilas,,50.372084,3.062461,0,10461,0
10462,01BO,Faubourg d'Esquerchin,,50.373385,3.065854,1,,0
20919,01BO1,Faubourg d'Esquerchin,,50.373403,3.066055,0,10462,0
10558,01CC,Ecole des Mines,,50.374290,3.066689,1,,0
21438,01CC4,Ecole des Mines,,50.374287,3.066581,0,10558,0
10470,01BR,Chemin Vert,,50.368629,3.064151,1,,0
20935,01BR1,Chemin Vert,,50.368768,3.063973,0,10470,0
10471,01BS,D'Orval,,50.365870,3.066838,1,,0
20937,01BS1,D'Orval,,50.365869,3.066529,0,10471,0
10569,01CD,Pasteur - DOUAI,,50.364036,3.073837,1,,0
21132,01CD1,Pasteur - DOUAI,,50.363779,3.074538,0,10569,0
10359,01AK,Rogerol,,50.366917,3.084721,1,,0
20713,01AK1,Rogerol,,50.366917,3.084721,0,10359,0
10479,02AK,Frères Martel,,50.365592,3.097440,1,,0
21473,06AQ2,Frères Martel,,50.365815,3.097171,0,10479,0
10529,02AV,Bivouac,,50.369725,3.101375,1,,0
21054,02AV2,Bivouac,,50.369650,3.101350,0,10529,0
10528,05AF,Place Ronde,,50.372410,3.108092,1,,0
21052,05AF2,Place Ronde,,50.372420,3.108159,0,10528,0
10734,05AJ,Faidherbe,,50.381601,3.107872,1,,0
21471,05AJ2,Faidherbe,,50.381630,3.107997,0,10734,0
10383,05AC,Mairie - WAZIERS,,50.385278,3.108110,1,,0
20762,05AC2,Mairie - WAZIERS,,50.385909,3.109097,0,10383,0
10384,05AD,Eglise - WAZIERS,,50.387462,3.118082,1,,0
20764,05AD2,Eglise - WAZIERS,,50.387394,3.117978,0,10384,0
10385,01AT,Ferronnière,,50.392383,3.125313,1,,0
20766,01AT2,Ferronnière,,50.392432,3.125433,0,10385,0
10386,01AU,Templerie,,50.394724,3.131184,1,,0
20768,01AU2,Templerie,,50.394667,3.131178,0,10386,0
10490,01BT,Godion,,50.395177,3.136147,1,,0
20976,01BT2,Godion,,50.395087,3.136042,0,10490,0
10491,07AA,Le Kintron,,50.392985,3.154025,1,,0
20978,07AA2,Le Kintron,,50.392849,3.154365,0,10491,0
10492,07AB,Pont Vincourt,,50.392119,3.157159,1,,0
21469,07AB4,Pont Vincourt,,50.392194,3.157516,0,10492,0
10641,35AA,Petit Anhiers,,50.397896,3.162254,1,,0
21269,35AA1,Petit Anhiers,,50.398038,3.162315,0,10641,0
10642,35AB,Rue des Ecoles,,50.402048,3.155613,1,,0
21271,35AB1,Rue des Ecoles,,50.402093,3.155599,0,10642,0
10643,35AC,Eglise - ANHIERS,,50.407172,3.155525,1,,0
21273,35AC1,Eglise - ANHIERS,,50.407277,3.155519,0,10643,0
10644,35AD,Route de Flines,,50.412242,3.155915,1,,0
21275,35AD1,Route de Flines,,50.412121,3.155686,0,10644,0
21276,35AD2,Route de Flines,,50.412112,3.155518,0,10644,0
21274,35AC2,Eglise - ANHIERS,,50.407067,3.155530,0,10643,0
21272,35AB2,Rue des Ecoles,,50.402004,3.155627,0,10642,0
21270,35AA2,Petit Anhiers,,50.397754,3.162193,0,10641,0
21468,07AB3,Pont Vincourt,,50.392300,3.157160,0,10492,0
20977,07AA1,Le Kintron,,50.393122,3.153686,0,10491,0
20975,01BT1,Godion,,50.395267,3.136252,0,10490,0
20767,01AU1,Templerie,,50.394782,3.131190,0,10386,0
20765,01AT1,Ferronnière,,50.392334,3.125194,0,10385,0
20763,05AD1,Eglise - WAZIERS,,50.387530,3.118186,0,10384,0
11077,05AB,Nelson Mandela,,50.387253,3.110937,1,,0
22172,05AB1,Nelson Mandela,,50.387253,3.110937,0,11077,0
22110,05AC3,Mairie - WAZIERS,,50.384788,3.107838,0,10383,0
21470,05AJ1,Faidherbe,,50.381572,3.107747,0,10734,0
21051,05AF1,Place Ronde,,50.372399,3.108025,0,10528,0
21053,02AV1,Bivouac,,50.369800,3.101400,0,10529,0
21472,06AQ1,Frères Martel,,50.365693,3.096995,0,10479,0
22178,01AB5,Place de Gaulle - DOUAI,,50.367380,3.084478,0,10660,0
20026,01DO1,Beffroi,,50.367491,3.081624,0,10013,0
20715,01AL1,Porte de Paris,,50.363772,3.078790,0,10360,0
21133,01CD2,Pasteur - DOUAI,,50.364294,3.073137,0,10569,0
20938,01BS2,D'Orval,,50.365872,3.067147,0,10471,0
20936,01BR2,Chemin Vert,,50.368491,3.064329,0,10470,0
21437,01CC3,Ecole des Mines,,50.374245,3.066680,0,10558,0
20920,01BO2,Faubourg d'Esquerchin,,50.373367,3.065652,0,10462,0
20918,01BN2,Lilas,,50.372406,3.062944,0,10461,0
20916,01BM2,Guynemer,,50.372023,3.056500,0,10460,0
21484,06AU1,Chapelle,,50.372358,3.050310,0,10740,0
21474,06AR1,ZI Cuincy,,50.371883,3.043069,0,10735,0
10928,60AC,La Dondaine,,50.397441,3.280995,1,,0
21834,60AC1,La Dondaine,,50.397389,3.281112,0,10928,0
10932,60AG,Place de Gaulle - MARCHIENNES,,50.407928,3.278430,1,,0
21841,60AG1,Place de Gaulle - MARCHIENNES,,50.408127,3.278490,0,10932,0
11048,60AS,Rue de Lille,,50.410330,3.273885,1,,0
22103,60AS01,Rue de Lille,,50.410596,3.273072,0,11048,0
10961,63AC,Calvaire - VRED,,50.399842,3.234396,1,,0
21899,63AC2,Calvaire - VRED,,50.400057,3.234790,0,10961,0
10963,63AE,Chapelle de la Vierge,,50.398087,3.232604,1,,0
21900,63AE2,Chapelle de la Vierge,,50.397910,3.232121,0,10963,0
10959,63AA,Place - VRED,,50.393362,3.231956,1,,0
21901,63AA2,Place - VRED,,50.393728,3.231594,0,10959,0
10962,63AD,Rue du Pont,,50.389955,3.232552,1,,0
21902,63AD2,Rue du Pont,,50.389916,3.232453,0,10962,0
10960,63AB,Pont de Vred,,50.388176,3.235508,1,,0
21903,63AB2,Pont de Vred,,50.388093,3.235462,0,10960,0
10716,08AH,Anchin - PECQUENCOURT,,50.383703,3.220114,1,,0
21414,08AH1,Anchin - PECQUENCOURT,,50.383703,3.220114,0,10716,0
10511,08AC,Croquet,,50.379055,3.221684,1,,0
21018,08AC2,Croquet,,50.378943,3.221643,0,10511,0
10510,08AB,Place Lemay,,50.375204,3.225449,1,,0
21016,08AB2,Place Lemay,,50.375143,3.225680,0,10510,0
10509,08AA,Sainte Marie - PECQUENCOURT,,50.372766,3.230607,1,,0
21577,08AA2,Sainte Marie - PECQUENCOURT,,50.372761,3.230534,0,10509,0
10810,08AI,Riez,,50.364863,3.242378,1,,0
21608,08AI2,Riez,,50.364921,3.242280,0,10810,0
11049,31AE,Le Mont,,50.364191,3.244146,1,,0
22104,31AE01,Le Mont,,50.364172,3.244179,0,11049,0
10938,61AC,Suzanne Lanoy,,50.376851,3.251650,1,,0
21849,61AC1,Suzanne Lanoy,,50.377049,3.251905,0,10938,0
10939,61AD,Colombier,,50.379745,3.254368,1,,0
21933,61AD2,Colombier,,50.379911,3.254603,0,10939,0
10936,61AA,Les Sarts,,50.376897,3.259240,1,,0
21896,61AA2,Les Sarts,,50.376835,3.259126,0,10936,0
10946,50AN,Achille Andris,,50.371803,3.265606,1,,0
21862,50AN1,Achille Andris,,50.371645,3.266286,0,10946,0
10945,50AM,De Sessevalle,,50.370420,3.272685,1,,0
21860,50AM1,De Sessevalle,,50.370160,3.272940,0,10945,0
10940,50AH,Cimetière - SOMAIN,,50.364954,3.277585,1,,0
21851,50AH1,Cimetière - SOMAIN,,50.364784,3.277649,0,10940,0
10943,50AK,Place - SOMAIN,,50.359066,3.280747,1,,0
21856,50AK1,Place - SOMAIN,,50.358842,3.280507,0,10943,0
10944,50AL,Hôpital,,50.354077,3.283145,1,,0
21858,50AL1,Hôpital,,50.353746,3.282970,0,10944,0
10907,50AF,Lycée Pasteur,,50.349505,3.282644,1,,0
21796,50AF1,Lycée Pasteur,,50.349275,3.282535,0,10907,0
10948,50AP,Cité Varsovie,,50.342203,3.280931,1,,0
21865,50AP1,Cité Varsovie,,50.342126,3.280857,0,10948,0
10911,50AG,4 Chemins - SOMAIN,,50.337829,3.280763,1,,0
21810,50AG2,4 Chemins - SOMAIN,,50.337390,3.280563,0,10911,0
10953,50AU,Raphaël Z.I,,50.337127,3.274921,1,,0
21920,50AU2,Raphaël Z.I,,50.337228,3.275560,0,10953,0
10905,03AV,Delestraint,,50.335898,3.258957,1,,0
21792,03AV2,Delestraint,,50.336141,3.257594,0,10905,0
11046,03AY,Archevêque,,50.335575,3.253051,1,,0
22097,03AY01,Archevêque,,50.335656,3.253144,0,11046,0
10329,03AH,Delforge,,50.333987,3.243608,1,,0
22066,03AH3,Delforge,,50.334053,3.243345,0,10329,0
10721,16AE,Hôtel de ville,,50.331006,3.234068,1,,0
21970,16AE3,Hôtel de ville,,50.330589,3.234194,0,10721,0
11047,16AP,Chaufour,,50.327801,3.233203,1,,0
22098,16AP01,Chaufour,,50.327384,3.233236,0,11047,0
22077,50AG3,4 Chemins - SOMAIN,,50.338267,3.280964,0,10911,0
21866,50AP2,Cité Varsovie,,50.342280,3.281004,0,10948,0
21797,50AF2,Lycée Pasteur,,50.349736,3.282753,0,10907,0
21859,50AL2,Hôpital,,50.354408,3.283319,0,10944,0
21857,50AK2,Place - SOMAIN,,50.359291,3.280987,0,10943,0
21852,50AH2,Cimetière - SOMAIN,,50.365125,3.277522,0,10940,0
21861,50AM2,De Sessevalle,,50.370680,3.272430,0,10945,0
21863,50AN2,Achille Andris,,50.371961,3.264926,0,10946,0
21847,61AA1,Les Sarts,,50.376960,3.259355,0,10936,0
21850,61AD1,Colombier,,50.379579,3.254133,0,10939,0
22061,61AC2,Suzanne Lanoy,,50.376653,3.251395,0,10938,0
22117,31AE2,Le Mont,,50.364209,3.244112,0,11049,0
21607,08AI1,Riez,,50.364804,3.242476,0,10810,0
21013,08AA1,Sainte Marie - PECQUENCOURT,,50.372771,3.230680,0,10509,0
21015,08AB1,Place Lemay,,50.375265,3.225219,0,10510,0
21017,08AC1,Croquet,,50.379168,3.221724,0,10511,0
21880,63AB1,Pont de Vred,,50.388258,3.235554,0,10960,0
21882,63AD1,Rue du Pont,,50.389994,3.232651,0,10962,0
21879,63AA1,Place - VRED,,50.392996,3.232318,0,10959,0
21883,63AE1,Chapelle de la Vierge,,50.398264,3.233087,0,10963,0
21881,63AC1,Calvaire - VRED,,50.399628,3.234003,0,10961,0
22118,60AS1,Rue de Lille,,50.410064,3.274697,0,11048,0
21894,60AG2,Place de Gaulle - MARCHIENNES,,50.407729,3.278371,0,10932,0
20728,13AC2,Centre Hospitalier,,50.339010,3.101648,0,10366,0
10367,02AE,Centre Commercial - SIN LE NOBLE,,50.343030,3.099960,1,,0
20730,02AE2,Centre Commercial - SIN LE NOBLE,,50.343195,3.099666,0,10367,0
10368,02AF,La Couronne,,50.344333,3.098619,1,,0
20732,02AF2,La Couronne,,50.344314,3.098758,0,10368,0
10370,02AH,Youri Gagarine,,50.345870,3.101003,1,,0
22131,02AH3,Youri Gagarine,,50.346312,3.100490,0,10370,0
10869,02AY,Sourcéane,,50.348889,3.100634,1,,0
22091,02AY3,Sourcéane,,50.348435,3.100166,0,10869,0
22093,12AA3,St Pol,,50.347792,3.091249,0,10365,0
21435,01AB2,Place de Gaulle - DOUAI,,50.367697,3.085058,0,10660,0
10351,01AC,Gare - DOUAI,,50.371696,3.089679,1,,0
20698,01AC1,Gare - DOUAI,,50.371671,3.089628,0,10351,0
20701,01AD2,Place Carnot,,50.371683,3.085576,0,10352,0
11063,01DL,Malvaux,,50.373544,3.081458,1,,0
22141,01DL1,Malvaux,,50.373544,3.081458,0,11063,0
10356,01AH,Sous-Préfecture,,50.376653,3.076383,1,,0
20707,01AH1,Sous-Préfecture,,50.376277,3.075991,0,10356,0
10357,01AI,Faculté A. de Tocqueville,,50.373631,3.071954,1,,0
20709,01AI1,Faculté A. de Tocqueville,,50.373621,3.071946,0,10357,0
21110,01CC1,Ecole des Mines,,50.374347,3.066767,0,10558,0
10358,01AJ,Lycée Elisa Lemonnier,,50.378454,3.071248,1,,0
20712,01AJ2,Lycée Elisa Lemonnier,,50.378408,3.070987,0,10358,0
10417,01BE,De Lattre de Tassigny,,50.381078,3.066442,1,,0
21557,01BE4,De Lattre de Tassigny,,50.381005,3.065931,0,10417,0
10400,01AV,Roseraie,,50.381114,3.061870,1,,0
20796,01AV2,Roseraie,,50.381312,3.061711,0,10400,0
10399,06AC,4 Chemins - CUINCY,,50.384137,3.060674,1,,0
20794,06AC2,4 Chemins - CUINCY,,50.384591,3.060041,0,10399,0
10397,06AA,Les Pins,,50.389543,3.056573,1,,0
20790,06AA2,Les Pins,,50.389484,3.056724,0,10397,0
10396,27AB,Parc Fenain,,50.392786,3.051082,1,,0
20788,27AB2,Parc Fenain,,50.392665,3.051369,0,10396,0
10395,27AA,Hirondelle,,50.394716,3.048442,1,,0
20786,11AC2,Hirondelle,,50.394785,3.048535,0,10395,0
10394,11AB,Centre Commercial - FLERS EN ESCREBIEUX,,50.396251,3.045514,1,,0
20784,11AB2,Centre Commercial - FLERS EN ESCREBIEUX,,50.396150,3.045959,0,10394,0
10393,11AA,Moulin - FLERS EN ESCREBIEUX,,50.406779,3.047872,1,,0
20782,11AA2,Moulin - FLERS EN ESCREBIEUX,,50.406743,3.047858,0,10393,0
10391,04AE,Place du 8 Mai,,50.412666,3.051324,1,,0
20778,04AE2,Place du 8 Mai,,50.412790,3.051637,0,10391,0
10390,04AD,République,,50.414972,3.053844,1,,0
20776,04AD2,République,,50.415008,3.053921,0,10390,0
10389,04AC,Jaurès - AUBY,,50.414414,3.061965,1,,0
20774,04AC2,Jaurès - AUBY,,50.414367,3.061943,0,10389,0
10388,04AB,Centre Courbet,,50.414285,3.067140,1,,0
20772,04AB2,Centre Courbet,,50.414379,3.067144,0,10388,0
10387,04AA,Bon Air,,50.420893,3.064331,1,,0
20769,04AA1,Bon Air,,50.420824,3.064345,0,10387,0
20771,04AB1,Centre Courbet,,50.414192,3.067137,0,10388,0
20773,04AC1,Jaurès - AUBY,,50.414462,3.061988,0,10389,0
20775,04AD1,République,,50.414936,3.053767,0,10390,0
20777,04AE1,Place du 8 Mai,,50.412541,3.051010,0,10391,0
20781,11AA1,Moulin - FLERS EN ESCREBIEUX,,50.406814,3.047886,0,10393,0
20783,11AB1,Centre Commercial - FLERS EN ESCREBIEUX,,50.396351,3.045070,0,10394,0
20785,27AA1,Hirondelle,,50.394646,3.048349,0,10395,0
20787,27AB1,Parc Fenain,,50.392907,3.050794,0,10396,0
20789,06AA1,Les Pins,,50.389601,3.056422,0,10397,0
20793,06AC1,4 Chemins - CUINCY,,50.383503,3.060003,0,10399,0
20795,01AV1,Roseraie,,50.380917,3.062028,0,10400,0
21556,01BE3,De Lattre de Tassigny,,50.381000,3.066131,0,10417,0
20711,01AJ1,Lycée Elisa Lemonnier,,50.378312,3.070900,0,10358,0
21111,01CC2,Ecole des Mines,,50.374282,3.066728,0,10558,0
20710,01AI2,Faculté A. de Tocqueville,,50.373641,3.071962,0,10357,0
20708,01AH2,Sous-Préfecture,,50.376328,3.076170,0,10356,0
11064,01DM,Martin du Nord,,50.375183,3.080824,1,,0
22142,01DM1,Martin du Nord,,50.375183,3.080824,0,11064,0
10354,01AF,Lycée Châtelet,,50.375014,3.083998,1,,0
20703,01AF1,Lycée Châtelet,,50.375014,3.083998,0,10354,0
22144,01AD5,Place Carnot,,50.372010,3.086175,0,10352,0
20699,01AC2,Gare - DOUAI,,50.371722,3.089731,0,10351,0
21434,01AB1,Place de Gaulle - DOUAI,,50.367626,3.084877,0,10660,0
20717,01AM1,Maison des Géants,,50.362027,3.078286,0,10361,0
20719,01AN1,Pont de Cambrai,,50.358692,3.080188,0,10362,0
20721,01AO1,Eglise du Râquet,,50.353145,3.084979,0,10363,0
20723,01AP1,Le Raquet,,50.350764,3.086813,0,10364,0
22094,12AA4,St Pol,,50.347582,3.091081,0,10365,0
22092,02AY4,Sourcéane,,50.348352,3.100281,0,10869,0
22132,02AH4,Youri Gagarine,,50.346123,3.100410,0,10370,0
20731,02AF1,La Couronne,,50.344352,3.098480,0,10368,0
20729,02AE1,Centre Commercial - SIN LE NOBLE,,50.342864,3.100254,0,10367,0
22156,04AA2,Bon Air,,50.420961,3.064318,0,10387,0
11069,100AA,Gare - LEFOREST,,50.427030,3.058809,1,,0
22154,100AA1,Gare - LEFOREST,,50.427127,3.058613,0,11069,0
22155,100AA2,Gare - LEFOREST,,50.426932,3.059005,0,11069,0
10981,16AF,Cimetière - AUBERCHICOURT,,50.328957,3.226668,1,,0
21960,16AF1,Cimetière - AUBERCHICOURT,,50.329038,3.227001,0,10981,0
21644,16AE2,Hôtel de ville,,50.331423,3.233942,0,10721,0
22067,03AH4,Delforge,,50.333961,3.243974,0,10329,0
22100,03AY02,Archevêque,,50.335494,3.252959,0,11046,0
21793,03AV1,Delestraint,,50.336051,3.258807,0,10905,0
21871,50AU1,Raphaël Z.I,,50.337026,3.274282,0,10953,0
11045,50AZ,La Poste,,50.358734,3.285127,1,,0
22101,50AZ02,La Poste,,50.358596,3.284868,0,11045,0
11044,58AH,PV Couturier,,50.360383,3.295134,1,,0
22102,58AH02,PV Couturier,,50.360191,3.294948,0,11044,0
10918,58AE,Jean Jaures - FENAIN,,50.362048,3.300431,1,,0
21917,58AE2,Jean Jaures - FENAIN,,50.362073,3.300539,0,10918,0
10915,58AB,Place - FENAIN,,50.366931,3.300445,1,,0
21817,58AB2,Place - FENAIN,,50.366951,3.300508,0,10915,0
10917,58AD,Rue Barbusse,,50.371848,3.303531,1,,0
22071,58AD2,Rue Barbusse,,50.371734,3.304331,0,10917,0
10916,58AC,Ancienne Gare,,50.370853,3.307901,1,,0
22087,58AC2,Ancienne Gare,,50.370688,3.308265,0,10916,0
11081,57AC,Rompteaux,,50.365655,3.316305,1,,0
22181,57AC2,Rompteaux,,50.365586,3.316202,0,11081,0
11082,57AD,Vaillant - ERRE,,50.360842,3.318348,1,,0
22183,57AD2,Vaillant - ERRE,,50.360727,3.318299,0,11082,0
10924,59AE,Les Moulins,,50.361872,3.328460,1,,0
21916,59AE2,Les Moulins,,50.361839,3.328649,0,10924,0
10920,59AA,Bon Coin,,50.363409,3.332466,1,,0
21822,59AA1,Bon Coin,,50.363551,3.332970,0,10920,0
10925,59AF,Eglise - HORNAING,,50.365394,3.337348,1,,0
21830,59AF2,Eglise - HORNAING,,50.365188,3.337680,0,10925,0
10923,59AD,La Loge,,50.370292,3.340086,1,,0
21827,59AD1,La Loge,,50.370229,3.340375,0,10923,0
10921,59AB,Duez,,50.372985,3.335421,1,,0
21823,59AB1,Duez,,50.372592,3.335830,0,10921,0
10922,59AC,Cité Heurteau,,50.377499,3.333545,1,,0
21826,59AC2,Cité Heurteau,,50.377126,3.333650,0,10922,0
21825,59AC1,Cité Heurteau,,50.377872,3.333440,0,10922,0
21824,59AB2,Duez,,50.373377,3.335013,0,10921,0
21914,59AD2,La Loge,,50.370354,3.339797,0,10923,0
21829,59AF1,Eglise - HORNAING,,50.365599,3.337016,0,10925,0
21915,59AA2,Bon Coin,,50.363267,3.331961,0,10920,0
21828,59AE1,Les Moulins,,50.361904,3.328271,0,10924,0
22182,57AD1,Vaillant - ERRE,,50.360957,3.318397,0,11082,0
22180,57AC1,Rompteaux,,50.365723,3.316407,0,11081,0
21818,58AC1,Ancienne Gare,,50.371018,3.307538,0,10916,0
21819,58AD1,Rue Barbusse,,50.371963,3.302731,0,10917,0
21816,58AB1,Place - FENAIN,,50.366912,3.300381,0,10915,0
21820,58AE1,Jean Jaures - FENAIN,,50.362023,3.300322,0,10918,0
22095,58AH1,PV Couturier,,50.360576,3.295320,0,11044,0
22096,50AZ1,La Poste,,50.358872,3.285387,0,11045,0
21961,16AF2,Cimetière - AUBERCHICOURT,,50.328876,3.226336,0,10981,0
10979,48AB,Mairie - VILLERS AU TERTRE,,50.302702,3.183836,1,,0
21957,48AB2,Mairie - VILLERS AU TERTRE,,50.302697,3.183274,0,10979,0
10826,48AA,Eglise - VILLERS AU TERTRE,,50.302712,3.180321,1,,0
21648,48AA2,Eglise - VILLERS AU TERTRE,,50.302697,3.180502,0,10826,0
10827,46AB,Rue de Villers,,50.314604,3.166843,1,,0
21650,46AB2,Rue de Villers,,50.314910,3.166900,0,10827,0
10689,42AA,Mairie - ERCHIN,,50.318308,3.167934,1,,0
21362,42AA2,Mairie - ERCHIN,,50.318496,3.168277,0,10689,0
10978,42AC,Rue de Lewarde,,50.320889,3.170761,1,,0
21955,42AC2,Rue de Lewarde,,50.321160,3.171138,0,10978,0
11051,19AR,Centre Historique Minier,,50.329555,3.172065,1,,0
22111,19AR2,Centre Historique Minier,,50.329707,3.172162,0,11051,0
10977,19AE,Bandini,,50.333687,3.169173,1,,0
21953,19AE2,Bandini,,50.333804,3.169245,0,10977,0
10976,19AD,Bois de Lewarde,,50.338123,3.166567,1,,0
21951,19AD2,Bois de Lewarde,,50.338526,3.166287,0,10976,0
10338,19AB,Place des Vésignons,,50.340728,3.165310,1,,0
21949,19AB6,Place des Vésignons,,50.340441,3.164710,0,10338,0
10975,46AC,Savary,,50.327067,3.148998,1,,0
21947,46AC2,Savary,,50.327129,3.149007,0,10975,0
10886,51AA,Gare - CANTIN,,50.312635,3.123145,1,,0
21756,51AA1,Gare - CANTIN,,50.312540,3.123173,0,10886,0
11052,51AR,Presbytère,,50.309501,3.127586,1,,0
22112,51AR2,Presbytère,,50.309532,3.127479,0,11052,0
22082,53AE2,La Tuilerie,,50.290623,3.151525,0,11022,0
22115,51AR1,Presbytère,,50.309470,3.127693,0,11052,0
21757,51AA2,Gare - CANTIN,,50.312729,3.123118,0,10886,0
21946,46AC1,Savary,,50.327004,3.148989,0,10975,0
21948,19AB5,Place des Vésignons,,50.340491,3.164972,0,10338,0
21950,19AD1,Bois de Lewarde,,50.337720,3.166847,0,10976,0
21952,19AE1,Bandini,,50.333570,3.169100,0,10977,0
22116,19AR1,Centre Historique Minier,,50.329404,3.171969,0,11051,0
21954,42AC1,Rue de Lewarde,,50.320618,3.170383,0,10978,0
21361,42AA1,Mairie - ERCHIN,,50.318120,3.167592,0,10689,0
21649,46AB1,Rue de Villers,,50.314298,3.166785,0,10827,0
21647,48AA1,Eglise - VILLERS AU TERTRE,,50.302727,3.180141,0,10826,0
21956,48AB1,Mairie - VILLERS AU TERTRE,,50.302707,3.184399,0,10979,0
10512,08AD,Blanc Mur,,50.379694,3.219315,1,,0
21019,08AD1,Blanc Mur,,50.379724,3.219270,0,10512,0
10513,08AE,Place - PECQUENCOURT,,50.377493,3.214564,1,,0
21021,08AE1,Place - PECQUENCOURT,,50.377515,3.214473,0,10513,0
10514,08AF,Collège - PECQUENCOURT,,50.375467,3.206547,1,,0
21023,08AF1,Collège - PECQUENCOURT,,50.375463,3.206589,0,10514,0
10515,08AG,Lucien Bourdon,,50.370401,3.201647,1,,0
21025,08AG1,Lucien Bourdon,,50.369917,3.201116,0,10515,0
10516,14AF,Albi,,50.365434,3.196070,1,,0
21027,14AF1,Albi,,50.366015,3.197051,0,10516,0
10502,14AE,Gare - MONTIGNY EN OSTREVENT,,50.361640,3.189683,1,,0
21000,14AE2,Gare - MONTIGNY EN OSTREVENT,,50.363456,3.191518,0,10502,0
10501,14AD,Mairie - MONTIGNY EN OSTREVENT,,50.364778,3.186332,1,,0
20997,14AD1,Mairie - MONTIGNY EN OSTREVENT,,50.364753,3.186442,0,10501,0
10500,14AC,LEP,,50.369243,3.187458,1,,0
20995,14AC1,LEP,,50.369258,3.187563,0,10500,0
10499,14AB,Place du Sana,,50.371704,3.185567,1,,0
20993,14AB1,Place du Sana,,50.371771,3.185433,0,10499,0
10498,14AA,Moucheron,,50.372827,3.179947,1,,0
20991,14AA1,Moucheron,,50.372910,3.180117,0,10498,0
10725,14AK,Cité des Agneaux,,50.376536,3.177955,1,,0
21426,14AK1,Cité des Agneaux,,50.376729,3.178000,0,10725,0
10497,07AG,Bois Duriez,,50.382130,3.179520,1,,0
20989,07AG1,Bois Duriez,,50.382230,3.179477,0,10497,0
10495,07AE,La Renaissance,,50.387820,3.173585,1,,0
20985,07AE1,La Renaissance,,50.388070,3.173502,0,10495,0
10494,07AD,Mairie - LALLAING,,50.390152,3.168983,1,,0
20983,07AD1,Mairie - LALLAING,,50.390211,3.168978,0,10494,0
20761,05AC1,Mairie - WAZIERS,,50.385138,3.107396,0,10383,0
10658,01AS1,Gayant Expo,,50.380532,3.094720,1,,0
21302,01AS3,Gayant Expo,,50.380591,3.094600,0,10658,0
10379,01AR,St Michel,,50.377428,3.087888,1,,0
20753,01AR1,St Michel,,50.377526,3.088047,0,10379,0
10378,01AQ,Arsenal,,50.376212,3.084760,1,,0
20751,01AQ1,Arsenal,,50.376248,3.084575,0,10378,0
21433,01AD3,Place Carnot,,50.371402,3.086331,0,10352,0
21306,01AB3,Place de Gaulle - DOUAI,,50.367563,3.085045,0,10660,0
21307,01AB4,Place de Gaulle - DOUAI,,50.367841,3.085312,0,10660,0
20752,01AQ2,Arsenal,,50.376176,3.084944,0,10378,0
20754,01AR2,St Michel,,50.377329,3.087729,0,10379,0
21303,01AS4,Gayant Expo,,50.380472,3.094840,0,10658,0
20980,07AB2,Pont Vincourt,,50.391864,3.156913,0,10492,0
10493,07AC,Nouveau Monde,,50.390493,3.163108,1,,0
20982,07AC2,Nouveau Monde,,50.390347,3.163534,0,10493,0
20984,07AD2,Mairie - LALLAING,,50.390093,3.168987,0,10494,0
20986,07AE2,La Renaissance,,50.387570,3.173668,0,10495,0
20990,07AG2,Bois Duriez,,50.382029,3.179564,0,10497,0
21427,14AK2,Cité des Agneaux,,50.376343,3.177911,0,10725,0
20992,14AA2,Moucheron,,50.372744,3.179778,0,10498,0
20994,14AB2,Place du Sana,,50.371636,3.185700,0,10499,0
20996,14AC2,LEP,,50.369229,3.187353,0,10500,0
20998,14AD2,Mairie - MONTIGNY EN OSTREVENT,,50.364803,3.186222,0,10501,0
20999,14AE1,Gare - MONTIGNY EN OSTREVENT,,50.361711,3.188540,0,10502,0
21028,14AF2,Albi,,50.364854,3.195089,0,10516,0
21026,08AG2,Lucien Bourdon,,50.370886,3.202179,0,10515,0
21024,08AF2,Collège - PECQUENCOURT,,50.375472,3.206505,0,10514,0
21022,08AE2,Place - PECQUENCOURT,,50.377470,3.214656,0,10513,0
21020,08AD2,Blanc Mur,,50.379665,3.219361,0,10512,0
11058,50AY,Mal. Leclerc,,50.362682,3.278630,1,,0
22129,50AY1,Mal. Leclerc,,50.362641,3.278404,0,11058,0
10941,50AI,Collège Hugo,,50.362240,3.273593,1,,0
21962,50AI2,Collège Hugo,,50.362292,3.273460,0,10941,0
10982,50AV,Ecole Désiré Chevaillier,,50.358860,3.266710,1,,0
21964,50AV1,Ecole Désiré Chevaillier,,50.358783,3.266230,0,10982,0
21736,31AA3,Brasserie - BRUILLE LEZ MARCHIENNES,,50.358652,3.244242,0,10700,0
10877,31AC,Limonaderie,,50.361558,3.243863,1,,0
21734,31AC1,Limonaderie,,50.361719,3.243916,0,10877,0
21452,14AE3,Gare - MONTIGNY EN OSTREVENT,,50.360705,3.189337,0,10502,0
10563,40AA,Calvaire - LOFFRE,,50.356769,3.175301,1,,0
21120,40AA1,Calvaire - LOFFRE,,50.356792,3.175211,0,10563,0
10693,40AC,Place - LOFFRE,,50.355509,3.172084,1,,0
21370,40AC2,Place - LOFFRE,,50.355550,3.172085,0,10693,0
10692,40AB,Rue des Moines,,50.357718,3.165426,1,,0
21368,40AB2,Rue des Moines,,50.357741,3.165342,0,10692,0
11113,40AE,Passage à Niveau - LOFFRE,,50.359570,3.160632,1,,0
22257,40AE2,Passage à Niveau - LOFFRE,,50.359503,3.161010,0,11113,0
10691,15AL,Lanvin,,50.353376,3.149222,1,,0
21366,15AL2,Lanvin,,50.354189,3.149621,0,10691,0
10673,15AJ,Mairie - GUESNAIN,,50.352052,3.144731,1,,0
21331,15AJ1,Mairie - GUESNAIN,,50.352128,3.144739,0,10673,0
10674,15AK,Centre - GUESNAIN,,50.349503,3.143700,1,,0
21333,15AK1,Centre - GUESNAIN,,50.349741,3.143764,0,10674,0
10377,13AH,Audegon,,50.350977,3.131158,1,,0
20749,13AH1,Audegon,,50.350979,3.131122,0,10377,0
10376,13AG,Iris,,50.348014,3.129082,1,,0
20747,13AG1,Iris,,50.347798,3.128838,0,10376,0
10375,13AF,Semail,,50.344877,3.126645,1,,0
20745,13AF1,Semail,,50.344954,3.126722,0,10375,0
10374,13AE,Rue du 8 Mai,,50.346628,3.123717,1,,0
20743,13AE1,Rue du 8 Mai,,50.346890,3.123481,0,10374,0
10373,13AD,Rue des Poilus,,50.349279,3.121038,1,,0
20741,13AD1,Rue des Poilus,,50.349305,3.121088,0,10373,0
10876,02AZ,Ecopark du Raquet,,50.348996,3.110504,1,,0
21730,02AZ1,Ecopark du Raquet,,50.349090,3.110170,0,10876,0
21715,02AY1,Sourcéane,,50.349225,3.100915,0,10869,0
21548,13AM3,Parc du Luc,,50.340870,3.101413,0,10653,0
21716,02AY2,Sourcéane,,50.349544,3.101174,0,10869,0
21731,02AZ2,Ecopark du Raquet,,50.348902,3.110838,0,10876,0
20742,13AD2,Rue des Poilus,,50.349253,3.120988,0,10373,0
20744,13AE2,Rue du 8 Mai,,50.346366,3.123952,0,10374,0
20746,13AF2,Semail,,50.344800,3.126567,0,10375,0
20748,13AG2,Iris,,50.348229,3.129327,0,10376,0
20750,13AH2,Audegon,,50.350976,3.131195,0,10377,0
21334,15AK2,Centre - GUESNAIN,,50.349266,3.143636,0,10674,0
21332,15AJ2,Mairie - GUESNAIN,,50.351976,3.144724,0,10673,0
21365,15AL1,Lanvin,,50.352563,3.148823,0,10691,0
22256,40AE1,Passage à Niveau - LOFFRE,,50.359638,3.160253,0,11113,0
21367,40AB1,Rue des Moines,,50.357695,3.165510,0,10692,0
21369,40AC1,Place - LOFFRE,,50.355469,3.172084,0,10693,0
21121,40AA2,Calvaire - LOFFRE,,50.356745,3.175392,0,10563,0
21453,14AE4,Gare - MONTIGNY EN OSTREVENT,,50.360688,3.189337,0,10502,0
21733,31AC2,Limonaderie,,50.361397,3.243809,0,10877,0
21735,31AA4,Brasserie - BRUILLE LEZ MARCHIENNES,,50.358604,3.244106,0,10700,0
21963,50AV2,Ecole Désiré Chevaillier,,50.358936,3.267190,0,10982,0
21853,50AI1,Collège Hugo,,50.362187,3.273726,0,10941,0
22130,50AY2,Mal. Leclerc,,50.362723,3.278856,0,11058,0
20725,12AA1,St Pol,,50.344970,3.092050,0,10365,0
22025,86AA2,Passage à Niveau - BRUNEMONT,,50.278334,3.145957,0,11012,0
22027,86AB2,Mairie - BRUNEMONT,,50.271617,3.141395,0,11013,0
22147,75AA2,Belvédère,,50.258390,3.155132,0,11066,0
22149,75AB2,Ecole - AUBENCHEUL AU BAC,,50.257587,3.158309,0,11067,0
11029,70AC2,Place - AUBIGNY AU BAC,,50.263397,3.160401,1,,0
22051,70AC2,Place - AUBIGNY AU BAC,,50.263397,3.160401,0,11029,0
22049,70AB2,Coteau,,50.265132,3.162540,0,11026,0
22047,70AA2,Centre - AUBIGNY AU BAC,,50.262583,3.164999,0,11024,0
22039,55AD2,Hosselet,,50.263659,3.206401,0,11019,0
21783,55AA2,Place de Gaulle - FECHAIN,,50.265973,3.210501,0,10900,0
22037,55AC2,Alouettes,,50.270887,3.208344,0,11018,0
10633,10AA,Le Cattelet,,50.414364,3.204485,1,,0
21254,10AA1,Le Cattelet,,50.414364,3.204485,0,10633,0
10634,10AB,Eglise du Cattelet,,50.418623,3.200309,1,,0
21255,10AB1,Eglise du Cattelet,,50.418429,3.200878,0,10634,0
10635,10AC,Brossolette - FLINES LES RACHES,,50.420892,3.193539,1,,0
21257,10AC1,Brossolette - FLINES LES RACHES,,50.420945,3.193848,0,10635,0
10636,10AD,Chanteclerc,,50.421043,3.188614,1,,0
21259,10AD1,Chanteclerc,,50.420845,3.188761,0,10636,0
10835,10AJ,Dulieu,,50.423000,3.182692,1,,0
21664,10AJ1,Dulieu,,50.423027,3.182783,0,10835,0
10639,10AG,Péri,,50.421715,3.180530,1,,0
21265,10AG1,Péri,,50.421576,3.180361,0,10639,0
10640,10AH,Montreuil,,50.418507,3.171070,1,,0
21267,10AH1,Montreuil,,50.418540,3.171035,0,10640,0
22108,35AD3,Route de Flines,,50.412370,3.156074,0,10644,0
10645,21AA,Rue de Baillon,,50.416398,3.142339,1,,0
21277,21AA1,Rue de Baillon,,50.416437,3.142141,0,10645,0
10646,21AB,Rue Neuve - RÂCHES,,50.416335,3.137217,1,,0
21279,21AB1,Rue Neuve - RÂCHES,,50.416344,3.137210,0,10646,0
10647,21AC,Mairie - RACHES,,50.414417,3.135873,1,,0
21281,21AC1,Mairie - RACHES,,50.414218,3.135729,0,10647,0
10648,21AD,Le Pont,,50.411667,3.134142,1,,0
21283,21AD1,Le Pont,,50.411868,3.134261,0,10648,0
10649,01CF,Arkéos - Orionis,,50.407395,3.127612,1,,0
21285,01CF1,Arkéos - Orionis,,50.407377,3.127535,0,10649,0
10650,01CG,Eglise - DOUAI,,50.404940,3.124065,1,,0
21287,01CG1,Eglise - DOUAI,,50.404951,3.123974,0,10650,0
10651,01CH,Transformateur - DOUAI,,50.402330,3.120489,1,,0
21289,01CH1,Transformateur - DOUAI,,50.402379,3.120460,0,10651,0
10652,01CI,Lespagnol,,50.393433,3.112036,1,,0
21291,01CI1,Lespagnol,,50.393516,3.111959,0,10652,0
10450,05AE,Langevin - WAZIERS,,50.387699,3.102194,1,,0
20895,05AE1,Langevin - WAZIERS,,50.387700,3.102189,0,10450,0
10380,01AS,Gayant Expo,,50.379661,3.092061,1,,0
20755,01AS1,Gayant Expo,,50.380204,3.093003,0,10380,0
20756,01AS2,Gayant Expo,,50.379118,3.091119,0,10380,0
20896,05AE2,Langevin - WAZIERS,,50.387698,3.102198,0,10450,0
21292,01CI2,Lespagnol,,50.393349,3.112112,0,10652,0
21290,01CH2,Transformateur - DOUAI,,50.402280,3.120519,0,10651,0
21288,01CG2,Eglise - DOUAI,,50.404930,3.124156,0,10650,0
21286,01CF2,Arkéos - Orionis,,50.407413,3.127689,0,10649,0
21284,21AD2,Le Pont,,50.411466,3.134022,0,10648,0
21282,21AC2,Mairie - RACHES,,50.414616,3.136016,0,10647,0
21280,21AB2,Rue Neuve - RÂCHES,,50.416326,3.137224,0,10646,0
21278,21AA2,Rue de Baillon,,50.416359,3.142537,0,10645,0
22109,35AD4,Route de Flines,,50.412365,3.156382,0,10644,0
21268,10AH2,Montreuil,,50.418474,3.171105,0,10640,0
21266,10AG2,Péri,,50.421854,3.180700,0,10639,0
21665,10AJ2,Dulieu,,50.422973,3.182601,0,10835,0
21260,10AD2,Chanteclerc,,50.421241,3.188468,0,10636,0
21258,10AC2,Brossolette - FLINES LES RACHES,,50.420838,3.193230,0,10635,0
21256,10AB2,Eglise du Cattelet,,50.418817,3.199741,0,10634,0
10667,10AI,Grand Rue,,50.419038,3.207624,1,,0
21320,10AI2,Grand Rue,,50.419038,3.207624,0,10667,0
22099,16AP02,Chaufour,,50.328219,3.233170,0,11047,0
10445,09AE,4 Pavés,,50.418337,3.105805,1,,0
20885,09AE1,4 Pavés,,50.418382,3.105656,0,10445,0
10446,09AF,Barrière du Marais,,50.410805,3.110264,1,,0
20887,09AF1,Barrière du Marais,,50.410832,3.110249,0,10446,0
10447,09AG,Belleforière,,50.405044,3.106802,1,,0
20889,09AG1,Belleforière,,50.405202,3.106803,0,10447,0
10448,09AH,Escarpelle,,50.400863,3.104807,1,,0
20891,09AH1,Escarpelle,,50.400962,3.104751,0,10448,0
10423,11AL,Château Pasquier,,50.399584,3.099193,1,,0
20841,11AL1,Château Pasquier,,50.399646,3.099706,0,10423,0
10424,11AM,Briquette,,50.399525,3.093991,1,,0
20843,11AM1,Briquette,,50.399580,3.093922,0,10424,0
10425,11AN,Place de Pont,,50.398844,3.086653,1,,0
20845,11AN1,Place de Pont,,50.398797,3.086643,0,10425,0
10407,11AJ,Troyon,,50.398353,3.082226,1,,0
20809,11AJ1,Troyon,,50.398310,3.082268,0,10407,0
10408,11AK,Escrebieux,,50.395986,3.080102,1,,0
20811,11AK1,Escrebieux,,50.395979,3.080003,0,10408,0
10409,01AW,08-mai,,50.394306,3.080539,1,,0
20813,01AW1,08-mai,,50.394319,3.080680,0,10409,0
10410,01AX,Passerelle,,50.393759,3.085848,1,,0
20815,01AX1,Passerelle,,50.393911,3.085738,0,10410,0
10411,01AY,Place du 14 Juillet,,50.392400,3.084791,1,,0
20817,01AY1,Place du 14 Juillet,,50.392422,3.084679,0,10411,0
10412,01AZ,Jaurès - DOUAI,,50.391044,3.082017,1,,0
20819,01AZ1,Jaurès - DOUAI,,50.390964,3.081601,0,10412,0
10415,01BC,Canivez,,50.387340,3.074196,1,,0
20825,01BC1,Canivez,,50.387288,3.074280,0,10415,0
10414,01BB,Alsace Lorraine - DOUAI,,50.386481,3.078499,1,,0
20823,01BB1,Alsace Lorraine - DOUAI,,50.386499,3.078638,0,10414,0
10413,01BA,Polygone,,50.385410,3.078700,1,,0
20821,01BA1,Polygone,,50.385522,3.078630,0,10413,0
10875,01DJ,Ecole d'Artillerie,,50.381461,3.077886,1,,0
21727,01DJ1,Ecole d'Artillerie,,50.381330,3.077767,0,10875,0
10680,01CM,Pont d'Ocre,,50.379318,3.076398,1,,0
21343,01CM1,Pont d'Ocre,,50.379596,3.075338,0,10680,0
10459,06AI,Pagnol,,50.374736,3.052376,1,,0
20914,06AI2,Pagnol,,50.374772,3.052418,0,10459,0
10458,06AH,Notre Dame,,50.376806,3.051297,1,,0
20912,06AH2,Notre Dame,,50.376685,3.051422,0,10458,0
10457,06AG,Cimetière - CUINCY,,50.379414,3.049368,1,,0
20910,06AG2,Cimetière - CUINCY,,50.379360,3.049472,0,10457,0
10456,06AF,Eglise - CUINCY,,50.382936,3.047172,1,,0
20908,06AF2,Eglise - CUINCY,,50.383467,3.047098,0,10456,0
10455,06AE,Anicot,,50.380990,3.040547,1,,0
20906,06AE2,Anicot,,50.381009,3.040504,0,10455,0
10454,06AD,Closerie,,50.379289,3.034614,1,,0
20904,06AD2,Closerie,,50.379375,3.034649,0,10454,0
20903,06AD1,Closerie,,50.379204,3.034579,0,10454,0
20905,06AE1,Anicot,,50.380971,3.040589,0,10455,0
20907,06AF1,Eglise - CUINCY,,50.382405,3.047245,0,10456,0
20909,06AG1,Cimetière - CUINCY,,50.379469,3.049264,0,10457,0
20911,06AH1,Notre Dame,,50.376927,3.051171,0,10458,0
20913,06AI1,Pagnol,,50.374700,3.052334,0,10459,0
21440,01AH3,Sous-Préfecture,,50.377354,3.076989,0,10356,0
21344,01CM2,Pont d'Ocre,,50.379423,3.076598,0,10680,0
21728,01DJ2,Ecole d'Artillerie,,50.381591,3.078006,0,10875,0
20822,01BA2,Polygone,,50.385298,3.078770,0,10413,0
20824,01BB2,Alsace Lorraine - DOUAI,,50.386463,3.078359,0,10414,0
20826,01BC2,Canivez,,50.387392,3.074112,0,10415,0
20820,01AZ2,Jaurès - DOUAI,,50.391125,3.082433,0,10412,0
20818,01AY2,Place du 14 Juillet,,50.392377,3.084904,0,10411,0
20816,01AX2,Passerelle,,50.393606,3.085959,0,10410,0
20814,01AW2,08-mai,,50.394292,3.080399,0,10409,0
20812,11AK2,Escrebieux,,50.395994,3.080201,0,10408,0
20810,11AJ2,Troyon,,50.398395,3.082185,0,10407,0
20846,11AN2,Place de Pont,,50.398891,3.086664,0,10425,0
20844,11AM2,Briquette,,50.399471,3.094059,0,10424,0
20842,11AL2,Château Pasquier,,50.399522,3.098680,0,10423,0
20892,09AH2,Escarpelle,,50.400764,3.104863,0,10448,0
20890,09AG2,Belleforière,,50.404885,3.106801,0,10447,0
20888,09AF2,Barrière du Marais,,50.410778,3.110280,0,10446,0
20886,09AE2,4 Pavés,,50.418292,3.105954,0,10445,0
11078,39AB,Motte du Moulin,,50.379322,3.010989,1,,0
22174,39AB1,Motte du Moulin,,50.379280,3.010941,0,11078,0
10713,39AA,Place - ESQUERCHIN,,50.375822,3.014673,1,,0
21409,39AA1,Place - ESQUERCHIN,,50.375860,3.014571,0,10713,0
10714,06AO,La Montagne,,50.375458,3.022467,1,,0
21410,06AO1,La Montagne,,50.375342,3.022317,0,10714,0
10715,06AP,Béhague,,50.377797,3.029189,1,,0
21412,06AP1,Béhague,,50.377796,3.029327,0,10715,0
21413,06AP2,Béhague,,50.377799,3.029050,0,10715,0
21411,06AO2,La Montagne,,50.375574,3.022617,0,10714,0
22175,39AA2,Place - ESQUERCHIN,,50.375784,3.014774,0,10713,0
22173,39AB2,Motte du Moulin,,50.379364,3.011038,0,11078,0
20736,02AH2,Youri Gagarine,,50.345609,3.101269,0,10370,0
10371,02AI,Foucault,,50.345061,3.106143,1,,0
20738,02AI2,Foucault,,50.345084,3.106375,0,10371,0
10372,02AJ,Lycée,,50.347739,3.110432,1,,0
20740,02AJ2,Lycée,,50.347830,3.110570,0,10372,0
11083,02BA,Boulodrome,,50.353523,3.100667,1,,0
22187,02BA2,Boulodrome,,50.353647,3.100423,0,11083,0
10506,01BF,Rosa Parks,,50.354611,3.092499,1,,0
21008,01BF1,Rosa Parks,,50.354762,3.092495,0,10506,0
10732,01CR,Résidence d'Aoust,,50.358331,3.084328,1,,0
21464,01CR2,Résidence d'Aoust,,50.358383,3.084599,0,10732,0
10731,01CQ,Paul Hénin,,50.360914,3.088650,1,,0
21462,01CQ2,Paul Hénin,,50.360917,3.088697,0,10731,0
10730,01CP,Glacis,,50.362271,3.085555,1,,0
21460,01CP2,Glacis,,50.362509,3.084938,0,10730,0
10761,01CU,Place du Barlet,,50.365582,3.084239,1,,0
22185,01CU3,Place du Barlet,,50.365427,3.084494,0,10761,0
11074,01DN,Gabriel Fauré,,50.376938,3.095167,1,,0
22165,01DN2,Gabriel Fauré,,50.376938,3.095167,0,11074,0
21729,01CU2,Place du Barlet,,50.365802,3.083783,0,10761,0
21459,01CP1,Glacis,,50.362032,3.086172,0,10730,0
21461,01CQ1,Paul Hénin,,50.360911,3.088604,0,10731,0
21463,01CR1,Résidence d'Aoust,,50.358278,3.084057,0,10732,0
21009,01BF2,Rosa Parks,,50.354460,3.092504,0,10506,0
22188,02BA1,Boulodrome,,50.353399,3.100911,0,11083,0
20739,02AJ1,Lycée,,50.347648,3.110295,0,10372,0
20737,02AI1,Foucault,,50.345039,3.105912,0,10371,0
20735,02AH1,Youri Gagarine,,50.345438,3.101844,0,10370,0
21523,01CU1,Place du Barlet,,50.365518,3.084440,0,10761,0
10523,01FA,Rue de Paris,,50.365349,3.080073,1,,0
21040,01FA1,Rue de Paris,,50.365349,3.080073,0,10523,0
10546,01CB,Centre Commercial - DOUAI,,50.364343,3.078177,1,,0
21088,01CB2,Centre Commercial - DOUAI,,50.364516,3.077734,0,10546,0
10545,01CA,Maison des Elèves,,50.365231,3.074194,1,,0
21086,01CA2,Maison des Elèves,,50.365320,3.074145,0,10545,0
11050,01DK,Entrée des Eaux,,50.364627,3.071748,1,,0
22105,01DK01,Entrée des Eaux,,50.364627,3.071748,0,11050,0
10762,01CV,Porte d'Arras,,50.365516,3.070095,1,,0
21525,01CV1,Porte d'Arras,,50.365516,3.070095,0,10762,0
10763,01CW,Conservatoire,,50.368818,3.073621,1,,0
21526,01CW1,Conservatoire,,50.368818,3.073621,0,10763,0
10764,01CX,Petite Place,,50.369552,3.076837,1,,0
21527,01CX1,Petite Place,,50.369552,3.076837,0,10764,0
10765,01CY,Palais de Justice,,50.370763,3.077764,1,,0
21528,01CY1,Palais de Justice,,50.370763,3.077764,0,10765,0
10766,01CZ,L'Estanque,,50.372371,3.077992,1,,0
21529,01CZ1,L'Estanque,,50.372371,3.077992,0,10766,0
10780,01DA1,Wetz,,50.373142,3.079804,1,,0
21549,01DA11,Wetz,,50.373142,3.079804,0,10780,0
10768,01DB,Anchin - DOUAI,,50.372584,3.081361,1,,0
21531,01DB1,Anchin - DOUAI,,50.372584,3.081361,0,10768,0
10769,01DC,St Jacques,,50.371361,3.084420,1,,0
21532,01DC1,St Jacques,,50.371361,3.084420,0,10769,0
10770,01DD,Bellain,,50.369735,3.081240,1,,0
22189,01DD2,Bellain,,50.369735,3.081240,0,10770,0
11079,01EA,Rue de la Mairie,,50.368378,3.079031,1,,0
22176,01EA1,Rue de la Mairie,,50.368378,3.079031,0,11079,0
11080,01EB,Théâtre,,50.366416,3.078123,1,,0
22177,01EB1,Théâtre,,50.366416,3.078123,0,11080,0
10771,01DE,Place d'Armes,,50.367377,3.083732,1,,0
21534,01DE1,Place d'Armes,,50.367377,3.083732,0,10771,0
10654,13AN,Rés. Desbordes-Valmore,,50.338778,3.106462,1,,0
21295,13AN1,Rés. Desbordes-Valmore,,50.338778,3.106462,0,10654,0
10524,02AR,Crèche,,50.350054,3.108296,1,,0
21043,02AR1,Crèche,,50.349984,3.108307,0,10524,0
10525,02AS,Langevin - SIN LE NOBLE,,50.354278,3.110253,1,,0
21045,02AS1,Langevin - SIN LE NOBLE,,50.354265,3.110309,0,10525,0
10346,02AB,Gare - SIN LE NOBLE,,50.357410,3.112963,1,,0
21450,02AB3,Gare - SIN LE NOBLE,,50.357308,3.113208,0,10346,0
10345,02AA,Sucrerie,,50.356013,3.119034,1,,0
21449,02AA4,Sucrerie,,50.356137,3.119216,0,10345,0
10485,02AQ,Barrière,,50.359822,3.121690,1,,0
20965,02AQ1,Barrière,,50.359514,3.121689,0,10485,0
10484,02AP,Pescron,,50.362434,3.121175,1,,0
20963,02AP1,Pescron,,50.362479,3.121104,0,10484,0
10483,02AO,Monument - SIN LE NOBLE,,50.362735,3.115127,1,,0
20961,02AO1,Monument - SIN LE NOBLE,,50.362859,3.114860,0,10483,0
10526,02AT,Ecole des Soeurs,,50.366179,3.116687,1,,0
21047,02AT1,Ecole des Soeurs,,50.366265,3.116639,0,10526,0
10527,02AU,Lamendin,,50.369409,3.112850,1,,0
21049,02AU1,Lamendin,,50.369976,3.112497,0,10527,0
10531,05AG,Cité Dincq,,50.370633,3.098726,1,,0
21057,05AG1,Cité Dincq,,50.371112,3.098735,0,10531,0
10532,05AH,Allée J,,50.373249,3.098436,1,,0
21059,05AH1,Allée J,,50.373323,3.098512,0,10532,0
10533,01BU,La Clochette,,50.375451,3.098828,1,,0
21061,01BU1,La Clochette,,50.375516,3.098900,0,10533,0
10534,01BV,Gounod,,50.379449,3.095060,1,,0
21063,01BV1,Gounod,,50.379603,3.094999,0,10534,0
21064,01BV2,Gounod,,50.379295,3.095121,0,10534,0
21062,01BU2,La Clochette,,50.375387,3.098756,0,10533,0
21060,05AH2,Allée J,,50.373175,3.098360,0,10532,0
21058,05AG2,Cité Dincq,,50.370155,3.098716,0,10531,0
21050,02AU2,Lamendin,,50.368842,3.113204,0,10527,0
21048,02AT2,Ecole des Soeurs,,50.366092,3.116735,0,10526,0
20962,02AO2,Monument - SIN LE NOBLE,,50.362610,3.115394,0,10483,0
20964,02AP2,Pescron,,50.362388,3.121246,0,10484,0
20966,02AQ2,Barrière,,50.360130,3.121692,0,10485,0
21448,02AA3,Sucrerie,,50.356416,3.119303,0,10345,0
21451,02AB4,Gare - SIN LE NOBLE,,50.356848,3.112508,0,10346,0
21046,02AS2,Langevin - SIN LE NOBLE,,50.354292,3.110197,0,10525,0
21044,02AR2,Crèche,,50.350124,3.108285,0,10524,0
20029,01AJ4,Lycée Elisa Lemonnier,,50.378565,3.071606,0,10358,0
10544,01BZ,Coubertin,,50.362786,3.071356,1,,0
21084,01BZ2,Coubertin,,50.362876,3.071400,0,10544,0
10543,01BY,Résidence Gayant,,50.362102,3.073738,1,,0
21082,01BY2,Résidence Gayant,,50.362088,3.073733,0,10543,0
10542,01BX,Rue de Lambres,,50.360428,3.074885,1,,0
21080,01BX2,Rue de Lambres,,50.360244,3.074723,0,10542,0
10541,01BW,Jemeppes,,50.358222,3.073189,1,,0
21078,01BW2,Jemeppes,,50.358130,3.073067,0,10541,0
10540,12AG,Rue de Douai - LAMBRES LEZ DOUAI,,50.355570,3.070832,1,,0
21076,12AG2,Rue de Douai - LAMBRES LEZ DOUAI,,50.355881,3.071068,0,10540,0
10539,12AF,Jaurès - LAMBRES LEZ DOUAI,,50.353546,3.068496,1,,0
21467,12AF3,Jaurès - LAMBRES LEZ DOUAI,,50.353650,3.068733,0,10539,0
10538,12AE,Passage à Niveau - LAMBRES LEZ DOUAI,,50.351084,3.071133,1,,0
21072,12AE2,Passage à Niveau - LAMBRES LEZ DOUAI,,50.351079,3.071182,0,10538,0
10537,12AD,Pompadour,,50.350247,3.074346,1,,0
21070,12AD2,Pompadour,,50.350332,3.073710,0,10537,0
10845,12AR,Rés. Théodore Monod,,50.347967,3.075800,1,,0
21677,12AR2,Rés. Théodore Monod,,50.347785,3.075049,0,10845,0
10991,80AD,Marlettes,,50.340878,3.067976,1,,0
21985,80AD2,Marlettes,,50.341016,3.069007,0,10991,0
10990,80AC,Place - COURCHELETTES,,50.342956,3.062054,1,,0
21983,80AC2,Place - COURCHELETTES,,50.342998,3.062128,0,10990,0
10989,80AB,Axter,,50.344612,3.060421,1,,0
21981,80AB2,Axter,,50.344589,3.060574,0,10989,0
10988,80AA,Stade - COURCHELETTES,,50.348040,3.059997,1,,0
21979,80AA2,Stade - COURCHELETTES,,50.348182,3.060476,0,10988,0
10987,12AS,Tennis,,50.349322,3.063556,1,,0
21977,12AS2,Tennis,,50.349342,3.063647,0,10987,0
10548,12AI,Mairie - LAMBRES LEZ DOUAI,,50.352838,3.063643,1,,0
22153,12AI4,Mairie - LAMBRES LEZ DOUAI,,50.353277,3.064066,0,10548,0
10547,12AH,Eglise - LAMBRES LEZ DOUAI,,50.354734,3.065580,1,,0
21089,12AH1,Eglise - LAMBRES LEZ DOUAI,,50.354778,3.065729,0,10547,0
10554,12AJ,Malraux,,50.354850,3.060466,1,,0
21104,12AJ2,Malraux,,50.354923,3.060488,0,10554,0
10555,12AK,St Amé,,50.357672,3.057269,1,,0
21106,12AK2,St Amé,,50.357685,3.057309,0,10555,0
21105,12AK1,St Amé,,50.357659,3.057228,0,10555,0
21103,12AJ1,Malraux,,50.354776,3.060444,0,10554,0
21090,12AH2,Eglise - LAMBRES LEZ DOUAI,,50.354690,3.065430,0,10547,0
22152,12AI3,Mairie - LAMBRES LEZ DOUAI,,50.352377,3.064098,0,10548,0
21976,12AS1,Tennis,,50.349303,3.063464,0,10987,0
21978,80AA1,Stade - COURCHELETTES,,50.347898,3.059518,0,10988,0
21980,80AB1,Axter,,50.344635,3.060269,0,10989,0
21982,80AC1,Place - COURCHELETTES,,50.342915,3.061981,0,10990,0
21984,80AD1,Marlettes,,50.340740,3.066945,0,10991,0
21678,12AR1,Rés. Théodore Monod,,50.348149,3.076552,0,10845,0
21069,12AD1,Pompadour,,50.350162,3.074981,0,10537,0
21071,12AE1,Passage à Niveau - LAMBRES LEZ DOUAI,,50.351089,3.071084,0,10538,0
21073,12AF1,Jaurès - LAMBRES LEZ DOUAI,,50.353249,3.068657,0,10539,0
21075,12AG1,Rue de Douai - LAMBRES LEZ DOUAI,,50.355259,3.070596,0,10540,0
21077,01BW1,Jemeppes,,50.358314,3.073311,0,10541,0
21079,01BX1,Rue de Lambres,,50.360613,3.075047,0,10542,0
21081,01BY1,Résidence Gayant,,50.362115,3.073743,0,10543,0
21083,01BZ1,Coubertin,,50.362697,3.071311,0,10544,0
21085,01CA1,Maison des Elèves,,50.365142,3.074243,0,10545,0
21087,01CB1,Centre Commercial - DOUAI,,50.364170,3.078620,0,10546,0
11073,13AT,A. Einstein,,50.343970,3.110400,1,,0
22255,13AT2,A. Einstein,,50.344059,3.110340,0,11073,0
10627,13AL,Pablo Neruda,,50.345502,3.114461,1,,0
21245,13AL2,Pablo Neruda,,50.345464,3.114524,0,10627,0
10487,13AJ,Eglise - DECHY,,50.354799,3.125369,1,,0
20970,13AJ2,Eglise - DECHY,,50.354870,3.125435,0,10487,0
10486,13AI,Ste Barbe - DECHY,,50.357641,3.126152,1,,0
20968,13AI2,Ste Barbe - DECHY,,50.357680,3.126215,0,10486,0
10482,02AN,Place - SIN LE NOBLE,,50.363999,3.112569,1,,0
20959,02AN1,Place - SIN LE NOBLE,,50.364013,3.112660,0,10482,0
10481,02AM,Sembat,,50.365314,3.107245,1,,0
20957,02AM1,Sembat,,50.365481,3.106432,0,10481,0
10480,02AL,Rue de Douai - SIN LE NOBLE,,50.366222,3.101501,1,,0
20955,02AL1,Rue de Douai - SIN LE NOBLE,,50.366295,3.101362,0,10480,0
20953,02AK1,Frères Martel,,50.365440,3.097717,0,10479,0
10432,01BK,Bowling,,50.380420,3.081457,1,,0
20860,01BK2,Bowling,,50.380340,3.081740,0,10432,0
10431,01BJ,Baillencourt,,50.382233,3.085294,1,,0
20858,01BJ2,Baillencourt,,50.382304,3.085365,0,10431,0
10430,01BI,Alizés,,50.389073,3.089818,1,,0
20856,01BI2,Alizés,,50.389217,3.089126,0,10430,0
10429,01BH,Trannois,,50.390718,3.088777,1,,0
20854,01BH2,Trannois,,50.391180,3.088848,0,10429,0
10428,01BG,Mouchonnière,,50.394358,3.087537,1,,0
20852,01BG2,Mouchonnière,,50.394626,3.087316,0,10428,0
10427,11AP,Charcot,,50.395567,3.086455,1,,0
20850,11AP2,Charcot,,50.395610,3.086479,0,10427,0
10426,11AO,Pont de la Deûle,,50.398276,3.085233,1,,0
20848,11AO2,Pont de la Deûle,,50.398376,3.085271,0,10426,0
10406,11AI,M. Dapvril,,50.399180,3.072950,1,,0
20808,11AI2,M. Dapvril,,50.399288,3.072725,0,10406,0
10405,11AH,Boury,,50.398551,3.065911,1,,0
20806,11AH2,Boury,,50.398511,3.065476,0,10405,0
10404,11AG,Mairie - FLERS EN ESCREBIEUX,,50.398087,3.061101,1,,0
20804,11AG2,Mairie - FLERS EN ESCREBIEUX,,50.398145,3.061164,0,10404,0
10403,11AF,Barbusse,,50.400574,3.056717,1,,0
20802,11AF2,Barbusse,,50.400742,3.056378,0,10403,0
10402,11AE,Eglise - FLERS EN ESCREBIEUX,,50.401247,3.052753,1,,0
20800,11AE2,Eglise - FLERS EN ESCREBIEUX,,50.401259,3.052907,0,10402,0
10401,11AD,La Fontaine,,50.397446,3.050784,1,,0
20798,11AD2,La Fontaine,,50.397477,3.050770,0,10401,0
20797,11AD1,La Fontaine,,50.397414,3.050799,0,10401,0
20799,11AE1,Eglise - FLERS EN ESCREBIEUX,,50.401235,3.052599,0,10402,0
20801,11AF1,Barbusse,,50.400405,3.057055,0,10403,0
20803,11AG1,Mairie - FLERS EN ESCREBIEUX,,50.398029,3.061038,0,10404,0
20805,11AH1,Boury,,50.398592,3.066347,0,10405,0
20807,11AI1,M. Dapvril,,50.399073,3.073174,0,10406,0
20847,11AO1,Pont de la Deûle,,50.398176,3.085195,0,10426,0
20849,11AP1,Charcot,,50.395525,3.086430,0,10427,0
20851,01BG1,Mouchonnière,,50.394090,3.087758,0,10428,0
20853,01BH1,Trannois,,50.390256,3.088706,0,10429,0
20855,01BI1,Alizés,,50.388929,3.090510,0,10430,0
20857,01BJ1,Baillencourt,,50.382161,3.085223,0,10431,0
20859,01BK1,Bowling,,50.380500,3.081174,0,10432,0
21538,01CM3,Pont d'Ocre,,50.378934,3.077258,0,10680,0
20954,02AK2,Frères Martel,,50.365419,3.097877,0,10479,0
20956,02AL2,Rue de Douai - SIN LE NOBLE,,50.366149,3.101641,0,10480,0
20958,02AM2,Sembat,,50.365148,3.108059,0,10481,0
20960,02AN2,Place - SIN LE NOBLE,,50.363986,3.112478,0,10482,0
20967,13AI1,Ste Barbe - DECHY,,50.357601,3.126090,0,10486,0
20969,13AJ1,Eglise - DECHY,,50.354727,3.125304,0,10487,0
21244,13AL1,Pablo Neruda,,50.345540,3.114398,0,10627,0
22163,13AT1,A. Einstein,,50.343881,3.110460,0,11073,0
20829,01BE1,De Lattre de Tassigny,,50.380967,3.066590,0,10417,0
10416,01BD,Wagnonville,,50.384078,3.067737,1,,0
20828,01BD2,Wagnonville,,50.384746,3.067617,0,10416,0
21575,06AC3,4 Chemins - CUINCY,,50.384277,3.061174,0,10399,0
10468,06AM,Robespierre,,50.383344,3.055945,1,,0
20932,06AM2,Robespierre,,50.383444,3.056210,0,10468,0
10467,06AL,Calvaire - CUINCY,,50.382662,3.050936,1,,0
20930,06AL2,Calvaire - CUINCY,,50.382673,3.050784,0,10467,0
10466,06AK,Renoir,,50.382219,3.050520,1,,0
20928,06AK2,Renoir,,50.382204,3.050487,0,10466,0
10465,06AJ,Jaurès - CUINCY,,50.379498,3.054403,1,,0
20926,06AJ2,Jaurès - CUINCY,,50.379503,3.054389,0,10465,0
10464,01BQ,Maison d'Arrêt,,50.376753,3.059538,1,,0
20924,01BQ2,Maison d'Arrêt,,50.376672,3.059847,0,10464,0
10463,01BP,Brossolette - DOUAI,,50.375755,3.063369,1,,0
20922,01BP2,Brossolette - DOUAI,,50.375755,3.063369,0,10463,0
10710,12AN,Le Châtelier,,50.362054,3.065443,1,,0
21403,12AN1,Le Châtelier,,50.362063,3.065373,0,10710,0
10556,12AL,Corbineau,,50.361263,3.060725,1,,0
21107,12AL1,Corbineau,,50.361244,3.060435,0,10556,0
21091,12AI1,Mairie - LAMBRES LEZ DOUAI,,50.352825,3.063265,0,10548,0
21074,12AF2,Jaurès - LAMBRES LEZ DOUAI,,50.353739,3.068099,0,10539,0
21092,12AI2,Mairie - LAMBRES LEZ DOUAI,,50.352873,3.063145,0,10548,0
21108,12AL2,Corbineau,,50.361283,3.061015,0,10556,0
21404,12AN2,Le Châtelier,,50.362045,3.065513,0,10710,0
20921,01BP1,Brossolette - DOUAI,,50.375755,3.063369,0,10463,0
20923,01BQ1,Maison d'Arrêt,,50.376834,3.059229,0,10464,0
20925,06AJ1,Jaurès - CUINCY,,50.379494,3.054417,0,10465,0
20927,06AK1,Renoir,,50.382233,3.050552,0,10466,0
20929,06AL1,Calvaire - CUINCY,,50.382651,3.051088,0,10467,0
20931,06AM1,Robespierre,,50.383244,3.055681,0,10468,0
21576,06AC4,4 Chemins - CUINCY,,50.384176,3.061478,0,10399,0
20827,01BD1,Wagnonville,,50.383410,3.067858,0,10416,0
20830,01BE2,De Lattre de Tassigny,,50.381339,3.067115,0,10417,0
11003,84AB,Bourrelier,,50.275909,3.038249,1,,0
22009,84AB2,Bourrelier,,50.275909,3.038249,0,11003,0
11002,84AA,Mairie - LECLUSE,,50.278462,3.039200,1,,0
22007,84AA2,Mairie - LECLUSE,,50.277921,3.038610,0,11002,0
11057,84AE,Moulin - LECLUSE,,50.281476,3.040205,1,,0
22127,84AE2,Moulin - LECLUSE,,50.281468,3.040302,0,11057,0
11068,95AA,Rue de Douai,,50.289183,3.040582,1,,0
22150,95AA2,Rue de Douai,,50.289132,3.040565,0,11068,0
11001,83AC,Source,,50.282312,3.056534,1,,0
22005,83AC2,Source,,50.282338,3.056430,0,11001,0
11000,83AB,Stade - HAMEL,,50.280157,3.067789,1,,0
22003,83AB2,Stade - HAMEL,,50.280108,3.067831,0,11000,0
10999,83AA,Village,,50.280854,3.073869,1,,0
22001,83AA2,Village,,50.280731,3.073608,0,10999,0
21765,52AC2,Ecole F. Noël,,50.283699,3.121866,0,10890,0
10889,52AB,Gare - ARLEUX,,50.286173,3.120251,1,,0
21763,52AB2,Gare - ARLEUX,,50.286227,3.120279,0,10889,0
10888,52AA,Cité du Cambrésis,,50.293865,3.118536,1,,0
21761,52AA2,Cité du Cambrésis,,50.293860,3.118526,0,10888,0
10887,51AB,Eglise - CANTIN,,50.309236,3.125196,1,,0
21759,51AB2,Eglise - CANTIN,,50.309445,3.125417,0,10887,0
21758,51AB1,Eglise - CANTIN,,50.309028,3.124974,0,10887,0
21760,52AA1,Cité du Cambrésis,,50.293870,3.118545,0,10888,0
21762,52AB1,Gare - ARLEUX,,50.286119,3.120222,0,10889,0
21764,52AC1,Ecole F. Noël,,50.283550,3.121688,0,10890,0
22000,83AA1,Village,,50.280976,3.074131,0,10999,0
22002,83AB1,Stade - HAMEL,,50.280206,3.067747,0,11000,0
22004,83AC1,Source,,50.282285,3.056637,0,11001,0
22151,95AA1,Rue de Douai,,50.289233,3.040599,0,11068,0
22128,84AE1,Moulin - LECLUSE,,50.281485,3.040109,0,11057,0
22006,84AA1,Mairie - LECLUSE,,50.279003,3.039791,0,11002,0
10349,01AA,Parc Bertin,,50.365015,3.090255,1,,0
20695,01AA2,Parc Bertin,,50.364689,3.090669,0,10349,0
10348,02AD,Saint Joseph,,50.363244,3.099304,1,,0
20693,02AD2,Saint Joseph,,50.363054,3.099662,0,10348,0
10347,02AC,La Nichée,,50.360269,3.107090,1,,0
20691,02AC2,La Nichée,,50.360194,3.107148,0,10347,0
20689,02AB2,Gare - SIN LE NOBLE,,50.357692,3.113179,0,10346,0
20687,02AA2,Sucrerie,,50.355549,3.119279,0,10345,0
10344,13AB,Place - DECHY,,50.353302,3.125953,1,,0
20685,13AB2,Place - DECHY,,50.353244,3.126079,0,10344,0
10343,13AA,Croix de Pierre,,50.351681,3.131696,1,,0
20683,13AA2,Croix de Pierre,,50.351469,3.132263,0,10343,0
10342,15AD,Eluard,,50.349654,3.137879,1,,0
20681,15AD2,Eluard,,50.349442,3.138501,0,10342,0
10341,15AC,Jean Jaurès - GUESNAIN,,50.348005,3.142973,1,,0
20679,15AC2,Jean Jaurès - GUESNAIN,,50.347766,3.143618,0,10341,0
10340,15AB,Malmaison,,50.345593,3.150237,1,,0
20677,15AB2,Malmaison,,50.345597,3.150192,0,10340,0
10655,15AA,Bougival,,50.343569,3.156483,1,,0
21297,15AA4,Bougival,,50.343480,3.156564,0,10655,0
20673,19AB2,Place des Vésignons,,50.340961,3.165245,0,10338,0
10337,19AA,Cité du Castel,,50.339951,3.175781,1,,0
20671,19AA2,Cité du Castel,,50.339899,3.175910,0,10337,0
10336,17AC,Blanc Cul,,50.338759,3.185964,1,,0
20669,17AC2,Blanc Cul,,50.338632,3.186771,0,10336,0
10335,17AB,Champ Fleuri,,50.337961,3.192540,1,,0
20667,17AB2,Champ Fleuri,,50.337999,3.192000,0,10335,0
10333,25AA,Vuillemin,,50.335654,3.212549,1,,0
20663,25AA2,Vuillemin,,50.335609,3.212668,0,10333,0
10332,16AC,Les Poètes,,50.334502,3.221957,1,,0
20661,16AC2,Les Poètes,,50.334452,3.222090,0,10332,0
10331,16AB,Centre-ville,,50.333582,3.231582,1,,0
20659,16AB2,Centre-ville,,50.333546,3.231792,0,10331,0
10330,16AA,Sainte Marie - AUBERCHICOURT,,50.333626,3.236786,1,,0
20657,16AA2,Sainte Marie - AUBERCHICOURT,,50.333590,3.236912,0,10330,0
20655,03AH2,Delforge,,50.333945,3.243675,0,10329,0
10328,03AG,Pyramide,,50.334228,3.247706,1,,0
20653,03AG2,Pyramide,,50.334188,3.247674,0,10328,0
10327,03AF,Eglise - ANICHE,,50.331081,3.250563,1,,0
20651,03AF2,Eglise - ANICHE,,50.331099,3.250611,0,10327,0
10865,03AS,Norbert Segard,,50.328492,3.252370,1,,0
21705,03AS2,Norbert Segard,,50.328354,3.252213,0,10865,0
10321,03AA,Nation,,50.327115,3.257869,1,,0
20639,03AA2,Nation,,50.327209,3.257948,0,10321,0
10864,03AP,Azincourt,,50.325575,3.264720,1,,0
21706,03AP2,Azincourt,,50.325444,3.264699,0,10864,0
21703,03AP1,Azincourt,,50.325568,3.264663,0,10864,0
20638,03AA1,Nation,,50.327021,3.257791,0,10321,0
21704,03AS1,Norbert Segard,,50.328630,3.252527,0,10865,0
20650,03AF1,Eglise - ANICHE,,50.331109,3.250656,0,10327,0
20652,03AG1,Pyramide,,50.334268,3.247738,0,10328,0
20654,03AH1,Delforge,,50.333990,3.243436,0,10329,0
20656,16AA1,Sainte Marie - AUBERCHICOURT,,50.333662,3.236660,0,10330,0
20658,16AB1,Centre-ville,,50.333618,3.231372,0,10331,0
20660,16AC1,Les Poètes,,50.334552,3.221823,0,10332,0
20662,25AA1,Vuillemin,,50.335699,3.212430,0,10333,0
20666,17AB1,Champ Fleuri,,50.337922,3.193081,0,10335,0
20668,17AC1,Blanc Cul,,50.338886,3.185158,0,10336,0
20670,19AA1,Cité du Castel,,50.340004,3.175651,0,10337,0
20672,19AB1,Place des Vésignons,,50.341018,3.166314,0,10338,0
21296,15AA3,Bougival,,50.343657,3.156401,0,10655,0
20676,15AB1,Malmaison,,50.345590,3.150281,0,10340,0
20678,15AC1,Jean Jaurès - GUESNAIN,,50.348244,3.142328,0,10341,0
20680,15AD1,Eluard,,50.349867,3.137257,0,10342,0
20682,13AA1,Croix de Pierre,,50.351894,3.131128,0,10343,0
20684,13AB1,Place - DECHY,,50.353361,3.125827,0,10344,0
20686,02AA1,Sucrerie,,50.355949,3.118338,0,10345,0
20688,02AB1,Gare - SIN LE NOBLE,,50.357791,3.112955,0,10346,0
20690,02AC1,La Nichée,,50.360343,3.107032,0,10347,0
20692,02AD1,Saint Joseph,,50.363434,3.098946,0,10348,0
20694,01AA1,Parc Bertin,,50.365342,3.089841,0,10349,0
10419,18AA,Hélène Borel,,50.440999,3.119690,1,,0
20834,18AA2,Hélène Borel,,50.440999,3.119690,0,10419,0
10434,18AB,Château-Raimbeaucourt,,50.437560,3.116550,1,,0
20863,18AB1,Château-Raimbeaucourt,,50.437569,3.116720,0,10434,0
10435,18AC,Edwigières,,50.439410,3.110070,1,,0
20865,18AC1,Edwigières,,50.439540,3.109820,0,10435,0
10436,18AD,Place - RAIMBEAUCOURT,,50.439762,3.101380,1,,0
20867,18AD1,Place - RAIMBEAUCOURT,,50.440045,3.101559,0,10436,0
10437,18AE,Chapelle Malbois,,50.436390,3.094815,1,,0
20869,18AE1,Chapelle Malbois,,50.436400,3.094750,0,10437,0
10438,18AF,Pasteur - RAIMBEAUCOURT,,50.434830,3.088170,1,,0
20871,18AF1,Pasteur - RAIMBEAUCOURT,,50.434780,3.088050,0,10438,0
10439,18AG,Transformateur - RAIMBEAUCOURT,,50.432023,3.079006,1,,0
20873,18AG1,Transformateur - RAIMBEAUCOURT,,50.432094,3.079098,0,10439,0
10440,18AH,Les Tilleuls,,50.427322,3.074474,1,,0
20875,18AH1,Les Tilleuls,,50.427427,3.074341,0,10440,0
10772,09AL,Calvaire - ROOST WARENDIN,,50.421301,3.073542,1,,0
21536,09AL1,Calvaire - ROOST WARENDIN,,50.421084,3.073431,0,10772,0
10441,09AA,Site Funéraire,,50.417472,3.086549,1,,0
20877,09AA1,Site Funéraire,,50.417332,3.087012,0,10441,0
10442,09AB,Place - ROOST WARENDIN,,50.417239,3.091795,1,,0
20879,09AB1,Place - ROOST WARENDIN,,50.417185,3.091901,0,10442,0
10443,09AC,Anatole France,,50.417749,3.098736,1,,0
20881,09AC1,Anatole France,,50.417673,3.098656,0,10443,0
10444,09AD,Mairie - ROOST WARENDIN,,50.418382,3.102763,1,,0
20883,09AD1,Mairie - ROOST WARENDIN,,50.417976,3.101639,0,10444,0
10628,11AQ,CAD,,50.397969,3.103811,1,,0
21246,01CE1,CAD,,50.398054,3.103748,0,10628,0
10664,01CL,Scarpe,,50.393901,3.103550,1,,0
21313,01CL1,Scarpe,,50.393852,3.103440,0,10664,0
10449,01BL,Pont du Fort,,50.391859,3.105742,1,,0
20893,01BL1,Pont du Fort,,50.391655,3.105644,0,10449,0
10728,01CN,Communauté d'Agglo,,50.397215,3.101644,1,,0
21455,01CN1,Communauté d'Agglo,,50.397241,3.100706,0,10728,0
10729,01CO,Z.I. Dorignies,,50.395630,3.097370,1,,0
21457,01CO1,Z.I. Dorignies,,50.395552,3.097228,0,10729,0
10738,01CT,Caullery,,50.391689,3.098598,1,,0
21480,01CT1,Caullery,,50.391649,3.097598,0,10738,0
20894,01BL2,Pont du Fort,,50.392064,3.105841,0,10449,0
21314,01CL2,Scarpe,,50.393950,3.103661,0,10664,0
21247,01CE2,CAD,,50.397884,3.103874,0,10628,0
20884,09AD2,Mairie - ROOST WARENDIN,,50.418789,3.103887,0,10444,0
20882,09AC2,Anatole France,,50.417826,3.098815,0,10443,0
20880,09AB2,Place - ROOST WARENDIN,,50.417293,3.091690,0,10442,0
20878,09AA2,Site Funéraire,,50.417611,3.086085,0,10441,0
21537,09AL2,Calvaire - ROOST WARENDIN,,50.421517,3.073652,0,10772,0
20876,18AH2,Les Tilleuls,,50.427217,3.074608,0,10440,0
20874,18AG2,Transformateur - RAIMBEAUCOURT,,50.431952,3.078913,0,10439,0
20872,18AF2,Pasteur - RAIMBEAUCOURT,,50.434880,3.088290,0,10438,0
20870,18AE2,Chapelle Malbois,,50.436380,3.094880,0,10437,0
20868,18AD2,Place - RAIMBEAUCOURT,,50.439479,3.101201,0,10436,0
20866,18AC2,Edwigières,,50.439280,3.110320,0,10435,0
20864,18AB2,Château-Raimbeaucourt,,50.437551,3.116381,0,10434,0
21481,01CT2,Caullery,,50.391729,3.099598,0,10738,0
21458,01CO2,Z.I. Dorignies,,50.395708,3.097512,0,10729,0
21456,01CN2,Communauté d'Agglo,,50.397188,3.102582,0,10728,0
10631,09AJ,Les Loups,,50.406063,3.102416,1,,0
21251,09AJ1,Les Loups,,50.406063,3.102416,0,10631,0
10741,09AK,Commerce,,50.404845,3.098494,1,,0
21486,09AK1,Commerce,,50.404845,3.098494,0,10741,0
10629,09AI,Ceton,,50.406392,3.099274,1,,0
21248,09AI1,Ceton,,50.406392,3.099274,0,10629,0
10736,06AS,Haute Rive,,50.370996,3.029003,1,,0
21476,06AS1,Haute Rive,,50.371229,3.028652,0,10736,0
10737,01CS,Renault,,50.366205,3.032113,1,,0
21478,01CS1,Renault,,50.366205,3.032113,0,10737,0
11121,12AX,Envision AESC,,50.354854,3.030647,1,,0
22275,12AX1,Envision AESC,,50.354854,3.030647,0,11121,0
11126,12AZ,Frères Bréguet,,50.350088,3.040603,1,,0
22282,12AZ1,Frères Bréguet,,50.350093,3.040594,0,11126,0
11127,12BA,Jacqueline Auriol,,50.347534,3.036608,1,,0
22283,12BA1,Jacqueline Auriol,,50.347539,3.036596,0,11127,0
22284,12BA2,Jacqueline Auriol,,50.347530,3.036620,0,11127,0
22285,12AZ2,Frères Bréguet,,50.350082,3.040612,0,11126,0
21477,06AS2,Haute Rive,,50.370763,3.029355,0,10736,0
11107,05AA,Haut Terroir,,50.385841,3.121194,1,,0
22245,05AA1,Haut Terroir,,50.385775,3.121066,0,11107,0
11100,02BC,Rue Longue,,50.381619,3.122436,1,,0
22231,02BC1,Rue Longue,,50.381521,3.122340,0,11100,0
11099,02BB,Marais de Sin,,50.375691,3.118972,1,,0
22228,02BB1,Marais de Sin,,50.375470,3.118513,0,11099,0
11098,02AG,Jardinage,,50.371864,3.115715,1,,0
22227,02AG1,Jardinage,,50.371832,3.115480,0,11098,0
22226,02AG2,Jardinage,,50.371896,3.115951,0,11098,0
22229,02BB2,Marais de Sin,,50.375912,3.119431,0,11099,0
22230,02BC2,Rue Longue,,50.381718,3.122532,0,11100,0
22244,05AA2,Haut Terroir,,50.385906,3.121323,0,11107,0
10696,17AD,Buisset,,50.353166,3.198764,1,,0
21376,17AD2,Buisset,,50.353335,3.198621,0,10696,0
10695,14AH,IMA,,50.358299,3.192085,1,,0
21373,14AH1,IMA,,50.358339,3.192120,0,10695,0
21374,14AH2,IMA,,50.358259,3.192050,0,10695,0
21375,17AD1,Buisset,,50.352996,3.198906,0,10696,0
21377,17AE1,Abreuvoir,,50.350073,3.201967,0,10697,0
10882,03AQ,Fendali,,50.343716,3.256931,1,,0
21744,03AQ2,Fendali,,50.343711,3.256774,0,10882,0
11087,03AO,Verdun,,50.339059,3.258382,1,,0
22198,03AO2,Verdun,,50.338927,3.258282,0,11087,0
22199,03AV4,Delestraint,,50.335812,3.259487,0,10905,0
11088,03AW,D'Aoust,,50.332567,3.258029,1,,0
22202,03AW1,D'Aoust,,50.332668,3.257873,0,11088,0
22201,03AF3,Eglise - ANICHE,,50.331036,3.250423,0,10327,0
22203,03AW2,D'Aoust,,50.332467,3.258185,0,11088,0
22200,03AV3,Delestraint,,50.335589,3.259941,0,10905,0
22197,03AO1,Verdun,,50.339192,3.258481,0,11087,0
21745,03AQ1,Fendali,,50.343720,3.257088,0,10882,0
21707,03AP3,Azincourt,,50.325713,3.264798,0,10864,0
11061,07AR,Quartier St Charles,,50.393497,3.177839,1,,0
22139,07AR1,Quartier St Charles,,50.393497,3.177839,0,11061,0
10549,07AM,Rue du Galibot,,50.379647,3.160754,1,,0
21041,07AM1,Rue du Galibot,,50.379647,3.160754,0,10549,0
11111,07AH,Rue de Montigny,,50.379838,3.169561,1,,0
22254,07AH1,Rue de Montigny,,50.379869,3.169744,0,11111,0
11109,07AJ,Rue de la Fosse Bonnel,,50.382411,3.160169,1,,0
22250,07AJ1,Rue de la Fosse Bonnel,,50.382457,3.160212,0,11109,0
11110,07AI,Ricassar,,50.384939,3.156434,1,,0
22251,07AI1,Ricassar,,50.385041,3.156489,0,11110,0
11112,07AK,Sadi Carnot,,50.390524,3.162085,1,,0
22248,07AK1,Sadi Carnot,,50.390524,3.162085,0,11112,0
20979,07AB1,Pont Vincourt,,50.392118,3.157047,0,10492,0
20981,07AC1,Nouveau Monde,,50.390638,3.162683,0,10493,0
22252,07AI2,Ricassar,,50.384837,3.156379,0,11110,0
22249,07AJ2,Rue de la Fosse Bonnel,,50.382364,3.160126,0,11109,0
22253,07AH2,Rue de Montigny,,50.379808,3.169378,0,11111,0
11090,04AK,Méloni,,50.414209,3.038094,1,,0
22207,04AK1,Méloni,,50.414181,3.038226,0,11090,0
11089,04AJ,La Vallée,,50.414502,3.042127,1,,0
22205,04AJ1,La Vallée,,50.414404,3.042120,0,11089,0
22204,04AJ2,La Vallée,,50.414600,3.042133,0,11089,0
22206,04AK2,Méloni,,50.414237,3.037961,0,11090,0
10683,04AH,Pont d'Auby,,50.412609,3.068803,1,,0
21350,04AH2,Pont d'Auby,,50.412613,3.068585,0,10683,0
10682,04AG,Asturies,,50.407057,3.082218,1,,0
21348,04AG2,Asturies,,50.407021,3.082176,0,10682,0
21347,04AG1,Asturies,,50.407093,3.082260,0,10682,0
21349,04AH1,Pont d'Auby,,50.412604,3.069021,0,10683,0
10807,01DG,Collège Gayant,,50.401789,3.123808,1,,0
21601,01DG1,Collège Gayant,,50.401798,3.123676,0,10807,0
10836,01DI,Ruelle Madame,,50.397185,3.128885,1,,0
21666,01DI1,Ruelle Madame,,50.397300,3.128787,0,10836,0
21667,01DI2,Ruelle Madame,,50.397070,3.128983,0,10836,0
21602,01DG2,Collège Gayant,,50.401780,3.123940,0,10807,0
11102,02BE,Rue Neuve - SIN LE NOBLE,,50.373018,3.130583,1,,0
22235,02BE1,Rue Neuve - SIN LE NOBLE,,50.373108,3.130484,0,11102,0
11101,02BD,Porte de Fer,,50.372001,3.127150,1,,0
22233,02BD1,Porte de Fer,,50.372104,3.127007,0,11101,0
22232,02BD2,Porte de Fer,,50.371899,3.127293,0,11101,0
22234,02BE2,Rue Neuve - SIN LE NOBLE,,50.372928,3.130682,0,11102,0
10974,13AQ,Parc des Renouelles,,50.362023,3.141108,1,,0
21908,13AQ2,Parc des Renouelles,,50.362082,3.140951,0,10974,0
21909,13AQ1,Parc des Renouelles,,50.361964,3.141265,0,10974,0
10326,03AE,Alsace Lorraine - ANICHE,,50.328972,3.249703,1,,0
20649,03AE2,Alsace Lorraine - ANICHE,,50.329040,3.249598,0,10326,0
11084,03AK,Denfert Rochereau,,50.326700,3.248255,1,,0
22191,03AK2,Denfert Rochereau,,50.326425,3.248490,0,11084,0
11085,03AM,Lutas,,50.323366,3.249135,1,,0
22193,03AM2,Lutas,,50.323293,3.249237,0,11085,0
11086,03AN,Cordonnier,,50.323316,3.252593,1,,0
22196,03AN2,Cordonnier,,50.323226,3.252656,0,11086,0
10707,03AJ,Rousselin,,50.321330,3.257048,1,,0
21397,03AJ1,Rousselin,,50.321267,3.257076,0,10707,0
10706,03AI,St Gobain,,50.318604,3.261483,1,,0
21395,03AI1,St Gobain,,50.318494,3.261467,0,10706,0
21396,03AI2,St Gobain,,50.318714,3.261499,0,10706,0
21398,03AJ2,Rousselin,,50.321393,3.257021,0,10707,0
22195,03AN1,Cordonnier,,50.323406,3.252531,0,11086,0
22194,03AM1,Lutas,,50.323440,3.249034,0,11085,0
22192,03AK1,Denfert Rochereau,,50.326974,3.248021,0,11084,0
20648,03AE1,Alsace Lorraine - ANICHE,,50.328905,3.249808,0,10326,0
10798,18AL,Lenne,,50.443693,3.090389,1,,0
21584,18AL1,Lenne,,50.443693,3.090389,0,10798,0
10797,18AK,Ste Barbe - RAIMBEAUCOURT,,50.443078,3.093231,1,,0
21582,18AK1,Ste Barbe - RAIMBEAUCOURT,,50.442922,3.093670,0,10797,0
10796,18AJ,Foch,,50.442173,3.096712,1,,0
21580,18AJ1,Foch,,50.442137,3.096711,0,10796,0
10799,18AM,Gare - RAIMBEAUCOURT,,50.433360,3.093889,1,,0
21585,18AM1,Gare - RAIMBEAUCOURT,,50.433266,3.093985,0,10799,0
10800,18AN,Le Cornet,,50.431233,3.101392,1,,0
21587,18AN1,Le Cornet,,50.431132,3.101087,0,10800,0
10801,18AO,Voltaire - RAIMBEAUCOURT,,50.429733,3.109132,1,,0
21589,18AO1,Voltaire - RAIMBEAUCOURT,,50.429619,3.109297,0,10801,0
10802,18AP,Le Bas Liez,,50.428981,3.115924,1,,0
21591,18AP1,Le Bas Liez,,50.428914,3.115846,0,10802,0
10803,09AM,Fabrique,,50.421793,3.115881,1,,0
21593,09AM1,Fabrique,,50.421816,3.115771,0,10803,0
10805,09AO,Brasserie - ROOST WARENDIN,,50.421208,3.111819,1,,0
21597,09AO1,Brasserie - ROOST WARENDIN,,50.421235,3.111790,0,10805,0
10806,09AP,Foyer,,50.420404,3.109276,1,,0
21599,09AP1,Foyer,,50.420492,3.109428,0,10806,0
21600,09AP2,Foyer,,50.420316,3.109124,0,10806,0
21598,09AO2,Brasserie - ROOST WARENDIN,,50.421181,3.111847,0,10805,0
21594,09AM2,Fabrique,,50.421770,3.115992,0,10803,0
21592,18AP2,Le Bas Liez,,50.429049,3.116002,0,10802,0
21590,18AO2,Voltaire - RAIMBEAUCOURT,,50.429848,3.108967,0,10801,0
21588,18AN2,Le Cornet,,50.431335,3.101696,0,10800,0
21586,18AM2,Gare - RAIMBEAUCOURT,,50.433454,3.093794,0,10799,0
21581,18AJ2,Foch,,50.442209,3.096712,0,10796,0
21583,18AK2,Ste Barbe - RAIMBEAUCOURT,,50.443235,3.092792,0,10797,0
11091,39AC,Clinique,,50.374036,3.000669,1,,0
22209,39AC1,Clinique,,50.373941,3.000747,0,11091,0
22208,39AC2,Clinique,,50.374130,3.000591,0,11091,0
11097,27AC,Zone Logistique,,50.393102,3.027177,1,,0
22224,27AC2,Zone Logistique,,50.393180,3.027009,0,11097,0
10678,11AR,Le Villers,,50.403149,3.026235,1,,0
21340,11AR1,Le Villers,,50.403149,3.026235,0,10678,0
22225,27AC1,Zone Logistique,,50.393024,3.027345,0,11097,0
10992,80AE,Grand carré,,50.340443,3.057613,1,,0
21987,80AE2,Grand carré,,50.340397,3.057633,0,10992,0
21986,80AE1,Grand carré,,50.340488,3.057593,0,10992,0
11093,12AT,Cimetière - LAMBRES LEZ DOUAI,,50.352449,3.058291,1,,0
22216,12AT1,Cimetière - LAMBRES LEZ DOUAI,,50.352550,3.058365,0,11093,0
11094,12AU,Centre Social,,50.355631,3.063810,1,,0
22218,12AU2,Centre Social,,50.355551,3.063895,0,11094,0
11095,12AV,Lebas,,50.357970,3.067321,1,,0
22221,12AV2,Lebas,,50.358035,3.067496,0,11095,0
11096,12AW,Calmette,,50.362131,3.068710,1,,0
22222,12AW2,Calmette,,50.361762,3.068731,0,11096,0
22223,12AW1,Calmette,,50.362500,3.068690,0,11096,0
22220,12AV1,Lebas,,50.357905,3.067145,0,11095,0
22219,12AU1,Centre Social,,50.355711,3.063725,0,11094,0
22217,12AT2,Cimetière - LAMBRES LEZ DOUAI,,50.352349,3.058216,0,11093,0
11103,02BF,Lambres,,50.360647,3.105306,1,,0
22236,02BF1,Lambres,,50.360690,3.105182,0,11103,0
11104,02BG,Narbonne,,50.356698,3.097532,1,,0
22238,02BG1,Narbonne,,50.356755,3.097305,0,11104,0
11105,02BH,Carcassonne,,50.355086,3.100232,1,,0
22240,02BH1,Carcassonne,,50.355040,3.100046,0,11105,0
11106,02BI,Corbières,,50.355963,3.108467,1,,0
22242,02BI1,Corbières,,50.355992,3.108311,0,11106,0
22243,02BI2,Corbières,,50.355934,3.108622,0,11106,0
22241,02BH2,Carcassonne,,50.355131,3.100417,0,11105,0
22239,02BG2,Narbonne,,50.356641,3.097760,0,11104,0
22237,02BF2,Lambres,,50.360604,3.105429,0,11103,0
10903,56AB,Maréchal Foch,,50.286821,3.239321,1,,0
21788,56AB1,Maréchal Foch,,50.286861,3.239314,0,10903,0
22078,22AB3,Eglise - MONCHECOURT,,50.304333,3.207386,0,10685,0
22080,22AB4,Eglise - MONCHECOURT,,50.304385,3.207208,0,10685,0
21789,56AB2,Maréchal Foch,,50.286781,3.239328,0,10903,0
11062,52AK,Auberge du Pêcheur,,50.274959,3.100764,1,,0
22140,52AK1,Auberge du Pêcheur,,50.274959,3.100764,0,11062,0
10919,58AF,Cité du Rond Point,,50.343871,3.295495,1,,0
22210,58AF2,Cité du Rond Point,,50.343887,3.295530,0,10919,0
11092,58AG,Les Résistants,,50.356526,3.299940,1,,0
22212,58AG2,Les Résistants,,50.356577,3.300164,0,11092,0
22211,58AG1,Les Résistants,,50.356475,3.299716,0,11092,0
21821,58AF1,Cité du Rond Point,,50.343854,3.295459,0,10919,0
22214,54AB3,Monument - FRESSAIN,,50.287284,3.194414,0,10899,0
11065,53AF,Sorbiers,,50.293983,3.163177,1,,0
22145,53AF1,Sorbiers,,50.293983,3.163177,0,11065,0
11053,55AR,Rue Jules Domise,,50.266729,3.218598,1,,0
22119,55AR2,Rue Jules Domise,,50.266769,3.218585,0,11053,0
10901,55AB,Place S. Lannoy,,50.265871,3.213825,1,,0
21785,55AB2,Place S. Lannoy,,50.265907,3.213762,0,10901,0
21774,53AA2,Longue Borne - BUGNICOURT,,50.287344,3.152770,0,10895,0
21784,55AB1,Place S. Lannoy,,50.265835,3.213888,0,10901,0
22120,55AR1,Rue Jules Domise,,50.266689,3.218612,0,11053,0
22215,54AB4,Monument - FRESSAIN,,50.287116,3.194317,0,10899,0
10967,64AD,Place E. Bernard,,50.397990,3.298024,1,,0
21910,64AD2,Place E. Bernard,,50.397990,3.297992,0,10967,0
10966,64AC,Mairie - WANDIGNIES HAMAGE,,50.399141,3.314106,1,,0
21911,64AC2,Mairie - WANDIGNIES HAMAGE,,50.399057,3.314151,0,10966,0
10965,64AB,La Traitoire,,50.393819,3.315682,1,,0
21912,64AB2,La Traitoire,,50.393821,3.315496,0,10965,0
10964,64AA,La Navie,,50.394158,3.327472,1,,0
21913,64AA2,La Navie,,50.394136,3.327421,0,10964,0
21884,64AA1,La Navie,,50.394180,3.327522,0,10964,0
21885,64AB1,La Traitoire,,50.393816,3.315867,0,10965,0
21886,64AC1,Mairie - WANDIGNIES HAMAGE,,50.399225,3.314061,0,10966,0
21887,64AD1,Place E. Bernard,,50.397990,3.298056,0,10967,0
10927,60AB,Collège M. Yourcenar,,50.406580,3.287206,1,,0
21833,60AB1,Collège M. Yourcenar,,50.406580,3.287206,0,10927,0
10935,60AJ,Place de Gaulle (Rue A. Matton) - MARCHIENNES,,50.406988,3.279226,1,,0
21846,60AJ1,Place de Gaulle (Rue A. Matton) - MARCHIENNES,,50.407487,3.278980,0,10935,0
21835,60AC2,La Dondaine,,50.397492,3.280878,0,10928,0
22246,60AJ2,Place de Gaulle (Rue A. Matton) - MARCHIENNES,,50.406489,3.279472,0,10935,0
10958,62AE,Rue Ledoux,,50.430092,3.313790,1,,0
21877,62AE1,Rue Ledoux,,50.430078,3.313873,0,10958,0
10957,62AD,Rue Courtecuisse,,50.430888,3.318185,1,,0
21892,62AD2,Rue Courtecuisse,,50.430858,3.318114,0,10957,0
10955,62AB,Petite Chapelle,,50.429335,3.320270,1,,0
21874,62AB2,Petite Chapelle,,50.429370,3.320120,0,10955,0
10956,62AC,Mairie - TILLOY LEZ MARCHIENNES,,50.426716,3.319323,1,,0
21897,62AC2,Mairie - TILLOY LEZ MARCHIENNES,,50.426671,3.319284,0,10956,0
10954,62AA,Rue d'Herbomez,,50.424315,3.318603,1,,0
21872,62AA1,Rue d'Herbomez,,50.424315,3.318603,0,10954,0
10969,65AB,Place verte,,50.410688,3.316282,1,,0
22068,65AB2,Place verte,,50.410656,3.316281,0,10969,0
10971,65AD,Ecole - WARLAING,,50.411358,3.321203,1,,0
21921,65AD2,Ecole - WARLAING,,50.411276,3.321294,0,10971,0
10968,65AA,Eglise - WARLAING,,50.409996,3.328108,1,,0
22069,65AA2,Eglise - WARLAING,,50.409969,3.328163,0,10968,0
10970,65AC,Pont Levis,,50.407604,3.333701,1,,0
22070,65AC2,Pont Levis,,50.407708,3.333498,0,10970,0
21890,65AC1,Pont Levis,,50.407500,3.333904,0,10970,0
21888,65AA1,Eglise - WARLAING,,50.410023,3.328053,0,10968,0
21891,65AD1,Ecole - WARLAING,,50.411440,3.321112,0,10971,0
21889,65AB1,Place verte,,50.410719,3.316282,0,10969,0
21875,62AC1,Mairie - TILLOY LEZ MARCHIENNES,,50.426762,3.319362,0,10956,0
21873,62AB1,Petite Chapelle,,50.429300,3.320419,0,10955,0
21876,62AD1,Rue Courtecuisse,,50.430918,3.318256,0,10957,0
21878,62AE2,Rue Ledoux,,50.430106,3.313707,0,10958,0
10934,60AI,Elpret,,50.417346,3.297341,1,,0
21845,60AI2,Elpret,,50.417587,3.297961,0,10934,0
21844,60AI1,Elpret,,50.417105,3.296722,0,10934,0
10952,50AT,Pasteur Parking - SOMAIN,,50.349229,3.284144,1,,0
21870,50AT1,Pasteur Parking - SOMAIN,,50.349229,3.284144,0,10952,0
20030,01AJ3,Lycée Elisa Lemonnier,,50.378531,3.071501,0,10358,0
10496,07AF,Collège - LALLAING,,50.383511,3.173792,1,,0
20988,07AF2,Collège - LALLAING,,50.383509,3.173830,0,10496,0
20987,07AF1,Collège - LALLAING,,50.383513,3.173753,0,10496,0
11021,12AM1,Collège Malraux,,50.355455,3.061876,1,,0
22044,12AM1,Collège Malraux,,50.355455,3.061876,0,11021,0
10733,06AV,Jules Ferry,,50.381677,3.059289,1,,0
21466,06AV2,Jules Ferry,,50.381622,3.059376,0,10733,0
21465,06AV1,Jules Ferry,,50.381732,3.059201,0,10733,0
10637,10AE,Collège - FLINES LES RACHES,,50.427883,3.185472,1,,0
21261,10AE1,Collège - FLINES LES RACHES,,50.427883,3.185472,0,10637,0
21100,70AC2,Place - AUBIGNY AU BAC,,50.263397,3.160401,0,11028,0
10681,11AS,Stade Boulan,,50.400971,3.085561,1,,0
21346,11AS2,Stade Boulan,,50.400917,3.085494,0,10681,0
21345,11AS1,Stade Boulan,,50.401026,3.085627,0,10681,0
